actividad_tipo,nombre,tipo_via_codigo,tipo_via_descripcion,direccion_nombre_via,direccion_numero,direccion_codigo_postal,municipio_codigo,municipio_nombre,referencia,web,email,telefono,fax,longitud,latitud,fecha_creacion,fecha_actualizacion
servicios otro tipo,13 Magnum Tattoo,AV,Avenida,San Sebastian,71,38005,38038,Santa Cruz de Tenerife,,www.13magnum.com,tattoo13magnum@hotmail.com,922206958.0,,-16.25415385,28.46357863,2016-05-09T12:45:15.374000,2016-02-18T10:32:45.109000
estudio arquitectura ingenieria,2F Arquitectos,CL,Calle,Perez Diaz,68,38380,38051,La Victoria,,www.2farquitectos.es,gfernandez@arquitecto.com,922582624.0,,-16.469917,28.43453399,2016-05-09T12:45:15.374000,2015-08-04T13:35:09.001000
albergue mascotas,4A Asoc Amigos Animales Arico,Cl,Calle,Los Gavilanes,s/n,38589,38020,Güimar,Finca NaDu,https://www.teaming.net/4aasocamigosanimalesarico-grupo,amigos4a@gmail.com,604120312.0,,-16.49905285,28.17371582,2023-10-18T14:36:58.882000,2023-10-18T14:36:58.882000
estudio arquitectura ingenieria,5&5 Decoproyectos,AV,Avenida,Los Abrigos,38,38618,38017,Granadilla de Abona,Los Abrigos,,decoproyectos@gmail.com,922703880.0,922703878.0,-16.590823,28.02982169,2016-05-09T12:45:15.374000,2015-08-04T12:00:30.527000
administracion inmobiliaria,5th Avenue Gestion Inmobiliaria,AV,Avenida,Principes de España,22,38612,38017,Granadilla de Abona,El Medano,,inmob5thavenue@yahoo.es,922176886.0,922178587.0,-16.536998,28.04673029,2016-05-09T12:45:15.374000,2015-08-04T11:59:37.153000
peluqueria estetica,A & A Peluqueros,AV,Avenida,Los Majuelos,5,38107,38038,Santa Cruz de Tenerife,El Sobradillo Multicentro Avenida,,,,,-16.31205227,28.44287275,2016-05-12T09:58:10.136000,2016-05-16T10:09:36.973000
servicios audiovisuales,A Blackstone Film Company,CL,Calle,Levante,0,38632,38006,Arona,Pg Cho,www.blackstonefilm.com,service@blackstonefilm.com,922739916.0,0.0,-16.6514975,28.05029354,2016-05-09T12:45:15.374000,2016-11-09T09:37:12.779000
servicios audiovisuales,A Productions 360,CL,Calle,Franco Cupone,10,38109,38032,El Rosario,Puerto Deportivo Radazul Bajo,aproductions360.com,info@aproductions360.com,922098020.0,,-16.32120509,28.40116772,2017-06-21T10:50:43.223000,2017-06-21T10:50:43.223000
asesoria consultoria gestoria,A y G Asesores,CR,Carretera,General TF 28 Sur,156,38626,38006,Arona,Valle San Lorenzo,,,922767220.0,0.0,-16.66057757,28.09006757,2016-05-09T12:45:15.374000,2015-08-04T12:31:10.347000
aseguradora,A2 Seguros Axa,CL,Calle,Darias y Padron,1,38003,38038,Santa Cruz de Tenerife,CC Nuestra Señora de Africa Lc 23a,,,922102771.0,,-16.251446,28.46240999,2016-05-09T12:45:15.374000,2018-01-31T09:40:01.273000
servicios otro tipo,AAJ Studio,Cl,Calle,Tindaya,2,38413,38031,Los Realejos,,,,822292660.0,,-16.57178707,28.37858844,2023-10-18T12:08:17.876000,2023-10-18T12:08:17.876000
alquiler vehiculos,AB Rent a Car,CL,Calle,Doctor Celestino Gonzalez Padron,10,38400,38028,Puerto de la Cruz,Ur La Paz,www.autosberlin.com,,922381978.0,,-16.53055705,28.41247131,2016-07-29T10:43:08.397000,2016-07-29T10:43:08.397000
asesoria consultoria gestoria,Abeco Consultores,CL,Calle,El Calvario,5,38290,38032,El Rosario,La Esperanza,,,922548327.0,922548767.0,-16.366543,28.45211999,2016-05-09T12:45:15.374000,2015-08-04T10:49:35.113000
servicios profesionales abogacia,Abogada Carmen D Delgado Garzon,CR,Carretera,España TF 217,14,38390,38039,Santa Úrsula,Ed City Center Pl 1 Of 2,,loligarzon42@gmail.com,922302508.0,,-16.49079515,28.42528917,2016-05-09T12:45:15,2018-04-11T10:13:12.421000
servicios profesionales abogacia,Abogada Gonzalez de Chavez Gonzalez,CL,Calle,Media Cuesta,3,38417,38031,Los Realejos,El Toscal Longuera Ed Canaima I,,,922363803.0,922363803.0,-16.57256499,28.40126873,2016-05-09T12:45:15.374000,2023-10-18T14:41:54.296000
servicios profesionales abogacia,Abogada Joana Hernandez,Cl,Calle,San Antonio,9,38480,38010,Buenavista del Norte,,,joanahdezg@gmail.com,922127492.0,922127492.0,-16.8530995,28.37227099,2016-05-09T12:45:15.374000,2023-10-18T14:04:54.665000
servicios profesionales abogacia,Abogada M Candelaria De La Rosa,CL,Calle,El Casino,3,38280,38046,Tegueste,,,,,,-16.33717872,28.52292847,2016-05-09T12:45:15.374000,2016-05-24T09:53:31.081000
servicios profesionales abogacia,Abogada Maria Luz Goya,CL,Calle,Los Cercados,21,38380,38051,La Victoria,,,,922580520.0,,-16.46552251,28.43525428,2016-05-09T12:45:15.374000,2015-11-25T10:35:26.731000
servicios profesionales abogacia,Abogada Mariz Victoria Gutierrez Yumar,CL,Calle,Farrobillo,3,38390,38039,Santa Úrsula,El Farrobillo Pl 1 Of Dr,,victoriagutierrezyumar@hotmail.com,651608929.0,922337643.0,-16.48308497,28.4245297,2016-11-09T10:22:08,2018-04-11T13:39:44.767000
servicios profesionales abogacia,Abogada Rebeca Luis,AV,Avenida,La Gaviota,3,38686,38019,Guía de Isora,Varadero,,,922862711.0,,-16.83854788,28.22624089,2016-05-09T12:45:15.374000,2017-06-08T12:09:52.277000
servicios profesionales abogacia,Abogado Isidoro Luz Ascanio,CR,Carretera,Provincial TF 217,185,38390,38039,Santa Úrsula,Ed Ithaisa Pt H Pl 1,,iluzascanio@icatf.com.es,922304647.0,,-16.50358097,28.41682459,2016-05-09T12:45:15,2018-04-11T10:13:12.421000
servicios profesionales abogacia,Abogado Ivan M Andueza Pulido,CR,Carretera,Provincial TF 217,38,38390,38039,Santa Úrsula,Pl 2 Of 3,,ivandueza@ivandueza.es,922302525.0,,-16.49531252,28.42526424,,2018-04-11T10:13:12.421000
servicios profesionales abogacia,Abogado Jose Alexis Lopez Cabrera,AV,Avenida,Tres de Mayo,22,38410,38031,Los Realejos,Realejo Alto,,,922355665.0,,-16.58440591,28.38227637,2016-05-09T12:45:15.374000,2015-08-04T13:18:21.764000
servicios profesionales abogacia,Abogado Jose Julian Gutierrez,CR,Carretera,General TF 217 Norte,66,38380,38051,La Victoria,,,,,,-16.46814327,28.43586052,2016-05-09T12:45:15.374000,2015-11-25T12:16:42.130000
servicios profesionales abogacia,Abogado Jose Santiago Gonzalez,Cl,Calle,El Puerto,41,38480,38010,Buenavista del Norte,,,,922128125.0,,-16.85224925,28.37249764,2023-10-18T12:08:17.876000,2023-10-18T12:08:17.876000
servicios profesionales abogacia,Abogado Juan Luis Hernandez Perera,CL,Calle,Isaac de Vega,11,38600,38017,Granadilla de Abona,,,abogadoshd@gmail.com,922772363.0,922772547.0,-16.577164,28.12551039,2016-05-09T12:45:15.374000,2015-08-04T11:56:42.718000
servicios profesionales abogacia,Abogado Real Luis ,AV,Avenida,Canarias,9,38410,38031,Los Realejos,Realejo Alto,,,922340347.0,,-16.58436725,28.38095761,2016-05-09T12:45:15.374000,2023-10-18T14:41:54.296000
servicios profesionales abogacia,Abogado Sergio Batista Diaz,CL,Calle,San Antonio,13,38600,38017,Granadilla de Abona,,,sbgranadilla@interbook.net,922770262.0,922773155.0,-16.578328,28.12336932,2016-05-09T12:45:15.374000,2015-08-04T11:56:42.718000
servicios profesionales abogacia,Abogados Casanova y Perez,CL,Calle,San Francisco,7,38600,38017,Granadilla de Abona,,,abogadosyasociados00@yahoo.es,922772831.0,922771202.0,-16.577516,28.12333169,2016-05-09T12:45:15.374000,2015-08-04T11:56:42.718000
servicios profesionales abogacia,Abogados Inurria,CL,Calle,Herrador,17,38683,38040,Santiago del Teide,Puerto de Santiago,www.bufeteinurria.com,,629678726.0,,-16.84040151,28.23787172,2016-05-09T12:45:15.374000,2016-06-21T13:54:10.243000
servicios profesionales abogacia,Abogados Peraza y Ravelo,AV,Avenida,Los Menceyes,166,38320,38023,La Laguna,La Cuesta,,perazayravelo@gmail.com,922651235.0,,-16.29787445,28.47050513,2016-05-09T12:45:15.374000,2015-08-04T10:33:10.329000
asesoria consultoria gestoria,Abona Gestion Asesoria,CR,Carretera,General TF 28 Sur,12,38580,38005,Arico,Villa de Arico,,,,,-16.5010673,28.16541701,2016-05-09T12:45:15.374000,2016-05-19T10:53:43.772000
administracion inmobiliaria,Abona Inmobiliaria,CL,Calle,Evaristo Gomez Gonzalez,9,38612,38017,Granadilla de Abona,El Medano,www.abonainmobiliaria.com,palacios@abonainmobiliaria.com,922176235.0,,-16.539023,28.04471519,2016-05-09T12:45:15.374000,2015-11-10T10:52:31.023000
peluqueria estetica,Abona Peluqueria,CL,Calle,Jesus Nazareno,13,38003,38038,Santa Cruz de Tenerife,,,,922276891.0,,-16.25430947,28.4680888,2016-05-09T12:45:15.374000,2017-12-01T12:24:16.861000
servicios electricidad electronica,Abreu Instalaciones Electricas,CL,Calle,Farrobillo,41,38390,38039,Santa Úrsula,El Farrobillo,,instalaciones abreu@live.com,607539478.0,,-16.48217141,28.42273476,2016-11-09T10:22:08,2018-04-10T14:32:20.221000
agencias de noticias,AC Digital,CR,Carretera,General TF 192 El Rosario,110,38010,38038,Santa Cruz de Tenerife,Pl 1,www.acdigital.com,agencia@acdigital.es,922672121.0,922662921.0,-16.28085483,28.45249888,2016-05-09T12:45:15,2017-03-15T08:39:45
peluqueria estetica,AC Peluqueros,AV,Avenida,Antonio Dominguez Alfonso,16,38650,38006,Arona,Py Americas Ht Udalla Park Lc 02,,,922798571.0,,-16.72462441,28.05624809,2016-05-09T12:45:15.374000,2017-08-17T13:03:01.710000
agencias de noticias,ACAN Noticias,CL,Calle,Porlier,5,38004,38038,Santa Cruz de Tenerife,,www.azulyblanco.com,acan@azulyblanco.com,822013522.0,822013531.0,-16.25722197,28.46688316,2017-01-30T09:48:15,2017-01-31T07:28:11
estudio arquitectura ingenieria,Acentejo Ingenieros,CL,Calle,Vista Alegre,22,38380,38051,La Victoria,Ed Viña Vieja,www.acentejoingenieros.com,ccm@acentejoingenieros.com,922581936.0,922580737.0,-16.467564,28.43467499,2016-05-09T12:45:15.374000,2015-11-17T14:14:46.781000
agencias de noticias,ACFI Press,CL,Calle,Bethencourt y Molina,11,38003,38038,Santa Cruz de Tenerife,Ed Blandin Pl 1 Of E,www.acfipress.com,tenerife@acfipress.com,922535177.0,,-16.25221821,28.46103908,2016-05-09T12:45:15,2016-04-25T11:57:06
servicios otro tipo,Acromium,CL,Calle,Iriarte,17,38400,38028,Puerto de la Cruz,,,,666296894.0,,-16.54838783,28.4157689,2022-04-22T12:09:52.592000,2022-04-22T12:09:52.592000
administracion inmobiliaria,ACT Habit,AV,Avenida,Maritima,37,38683,38040,Santiago del Teide,Puerto de Santiago,www.acthabit.com,,922862299.0,,-16.84027877,28.22949315,2016-05-09T12:45:15.374000,2018-11-28T10:39:01.781000
asesoria consultoria gestoria,Activa Gestion Deportiva,CR,Carretera,Vieja TF 213,28,38380,38051,La Victoria,,www.activadeportiva.com,info@activadeportiva.com,605871274.0,922582103.0,-16.47995441,28.42906744,2016-05-09T12:45:15,2015-11-20T13:32:37
servicios profesionales limpieza,Achaman Limpieza,CL,Calle,Agustin Espinosa Garcia,3,38007,38038,Santa Cruz de Tenerife,,www.limpiezachaman.com,limpieza.achaman@gmail.com,922209006.0,922201095.0,-16.27080614,28.46648855,2016-05-09T12:45:15.374000,2016-06-07T14:11:00.500000
peluqueria estetica,Adan Piñero Peluqueros,AV,Avenida,Islas Canarias,5,38006,38038,Santa Cruz de Tenerife,,,,922248981.0,,-16.26233324,28.46780366,2016-05-09T12:45:15.374000,2018-01-17T11:53:21.353000
peluqueria estetica,Adan Piñero Peluqueros,AV,Avenida,Islas Canarias,123,38007,38038,Santa Cruz de Tenerife,Barrio Cruz del Señor,,,922875137.0,,-16.272305,28.46414799,2016-05-09T12:45:15.374000,2018-01-17T11:46:21.143000
edicion distribucion libros periodicos,Adeje Valeriano,CL,Calle,Isla de Alegranza,190,38679,38001,Adeje,Fañabe,,,922787131.0,,-16.73131643,28.10750427,2016-05-09T12:45:15.374000,2015-08-04T12:43:52.150000
peluqueria estetica,Adela Arce Natura Bisse,CL,Calle,San Juan,21,38204,38023,La Laguna,,www.adela-arce.com,informacion@adela-arce.com,922315347.0,,-16.31755,28.48723999,2016-05-09T12:45:15.374000,2015-08-24T11:58:32.537000
servicios otro tipo,ADFICAN,Cl,Calle,El Hierro,4,38410,38031,Los Realejos,,,administracion@adfican.es,922385900.0,,-16.58433818,28.38023608,2023-10-18T12:08:17.876000,2023-10-18T12:08:17.876000
peluqueria estetica,Adios Piojos,CL,Calle,Carmen Monteverde,64,38003,38038,Santa Cruz de Tenerife,Pt 1 Of 7,,tenerife@adiospiojos.es,615024651.0,,-16.25585696,28.46703132,,2018-01-17T09:45:29.610000
asesoria consultoria gestoria,Adlanta Asesores,CL,Calle,El Casino,27,38280,38046,Tegueste,,,adlanta@adlanta.es,922546293.0,922546881.0,-16.33935,28.52301799,2016-05-09T12:45:15.374000,2016-07-12T07:24:22.246000
administracion de loteria,Admin Loterias Raquel,PZ,"Plaza, plazoleta",Doctor Olivera,7,38201,38023,La Laguna,,,,,,-16.32027678,28.48997727,2021-06-08T10:09:02.163000,2021-06-08T10:09:02.163000
administracion inmobiliaria,Administracion de Fincas,CL,Calle,Prosperidad,5,38006,38038,Santa Cruz de Tenerife,,www.jcdadministrador.com,,922273205.0,922273205.0,-16.2628888,28.46863428,2016-05-09T12:45:15.374000,2015-11-11T14:50:02.124000
administracion inmobiliaria,Administracion de Fincas,RB,Rambla,General de Añaza,33,38111,38038,Santa Cruz de Tenerife,,,,922685851.0,,-16.29861335,28.42696125,2016-05-09T12:45:15.374000,2015-11-11T14:50:02.124000
administracion inmobiliaria,Administracion de Fincas ADM,CL,Calle,Venezuela,22,38631,38006,Arona,Las Galletas,,adm-24@hotmail.com,922786138.0,922786984.0,-16.65578247,28.00707367,2016-05-09T12:45:15.374000,2015-08-04T12:36:55.984000
administracion inmobiliaria,Administracion de Fincas Jesus Oliva,CL,Calle,Heliodoro Rodriguez Lopez,9,38005,38038,Santa Cruz de Tenerife,,www.jesusoliva.com,,922215509.0,,-16.262302,28.46056199,2016-05-09T12:45:15.374000,2017-03-15T09:48:11.409000
administracion inmobiliaria,Administracion de Fincas Rocio Lacaba,CL,Calle,Siempreviva,66,38107,38038,Santa Cruz de Tenerife,La Gallega,,rlacaba72@gmail.com,922619059.0,922619241.0,-16.31997912,28.43274788,2016-05-09T12:45:15.374000,2016-04-05T14:52:08.142000
administracion de loteria,Administracion de Loterias,CL,Calle,San Juan Bosco,1,38300,38026,La Orotava,Ed Temait,,,,,-16.51932631,28.39353314,2016-05-09T12:45:15.374000,2017-10-31T14:20:40.388000
administracion de loteria,Administracion de Loterias,AV,Avenida,Valle San Lorenzo,3,38626,38006,Arona,Valle San Lorenzo,,,0.0,0.0,-16.65631807,28.09046822,2016-05-09T12:45:15.374000,2015-08-04T12:31:10.347000
administracion de loteria,Administracion de Loterias,CL,Calle,La Ballena,5,38630,38006,Arona,Las Galletas,,,922731967.0,0.0,-16.65363452,28.00691613,2016-05-09T12:45:15.374000,2015-08-04T12:39:04.498000
administracion de loteria,Administracion de Loterias,CL,Calle,San Agustin,82,38430,38022,Icod de los Vinos,,,,922815168.0,,-16.715307,28.36914399,2016-05-09T12:45:15.374000,2015-08-04T13:09:51.115000
administracion de loteria,Administracion de Loterias,AV,Avenida,Principes de España,35,38435,38044,El Tanque,,,,922136871.0,,-16.779158,28.35580099,2016-05-09T12:45:15.374000,2015-08-04T12:58:55.904000
administracion de loteria,Administracion de Loterias,AV,Avenida,Colon,16,38400,38028,Puerto de la Cruz,Ht H10 Tenerife Playa,,,922383738.0,,-16.542325,28.41880399,2016-05-09T12:45:15.374000,2017-03-23T10:16:09.503000
administracion de loteria,Administracion de Loterias,CR,Carretera,General TF 24 Las Cañadas,41,38290,38032,El Rosario,La Esperanza,,,922548867.0,,-16.364943,28.45169399,2016-05-09T12:45:15.374000,2015-08-04T10:49:35.113000
administracion de loteria,Administracion de Loterias,CR,Carretera,General TF 351 San Jose,53,38428,38034,San Juan de la Rambla,San Jose,,,,,-16.644571,28.38005399,2016-05-09T12:45:15.374000,2016-05-24T11:46:13.881000
administracion de loteria,Administracion de Loterias,AV,Avenida,Jose Antonio,7,38420,38034,San Juan de la Rambla,,,,922350250.0,,-16.649021,28.39416899,2016-05-09T12:45:15.374000,2015-08-04T13:14:43.986000
administracion de loteria,Administracion de Loterias,CL,Calle,Reverendo Onesimo Bethencourt,5,38150,38038,Santa Cruz de Tenerife,Valleseco,,,922596956.0,0.0,-16.23725427,28.48666516,2016-05-09T12:45:15.374000,2016-07-11T08:29:34.256000
administracion de loteria,Administracion de Loterias,CR,Carretera,Real TF 237,104,38355,38043,Tacoronte,Agua Garcia,,,,,-16.40483813,28.46621317,2018-05-22T12:01:42.897000,2018-05-22T12:01:42.897000
administracion de loteria,Administracion de Loterias,CL,Calle,Musicos de Arafo,5,38550,38004,Arafo,,,,,,-16.41838883,28.33944788,2016-05-09T12:45:15.374000,2016-05-18T10:11:58.655000
administracion de loteria,Administracion de Loterias,CR,Carretera,Fuencaliente,19,38108,38023,La Laguna,,,,,,-16.29810813,28.44681109,2016-05-09T12:45:15.374000,2015-08-04T10:43:56.867000
administracion de loteria,Administracion de Loterias 10,CL,Calle,Sabino Berthelot,33,38002,38038,Santa Cruz de Tenerife,,,,922249846.0,,-16.25378508,28.46906737,2022-04-22T12:09:52.592000,2022-04-22T12:09:52.592000
administracion de loteria,Administracion de Loterias 14,CL,Calle,Valentin Sanz,2,38003,38038,Santa Cruz de Tenerife,,,,,,-16.25133632,28.46558878,2022-04-22T12:09:52.592000,2022-04-22T12:09:52.592000
administracion de loteria,Administracion de Loterias 9,CL,Calle,Del Castillo,3,38002,38038,Santa Cruz de Tenerife,,,,922241228.0,,-16.24933672,28.46680393,2022-04-22T12:09:52.592000,2022-04-22T12:09:52.592000
administracion de loteria,Administracion de Loterias Adorian,CL,Calle,Leoncio Rodriguez,1,38390,38039,Santa Úrsula,,,juditdoa@gmail.com,922302395.0,0.0,-16.4888322,28.42571558,2016-05-09T12:45:15.374000,2018-02-01T09:42:54.897000
administracion de loteria,Administracion de Loterias Avenida 17,AV,Avenida,Islas Canarias,17,38632,38006,Arona,El Fraile,,avda17@prodiamex.com,922785355.0,922734029.0,-16.66970989,28.0124169,2016-05-09T12:45:15.374000,2015-08-04T12:35:04.641000
administracion de loteria,Administración de Loterias Doña Conchita,PZ,"Plaza, plazoleta",Del Charco,14,38400,38028,Puerto de la Cruz,CC Rincon del Puerto,,,,,-16.55121712,28.41663776,2022-04-22T12:09:52.592000,2022-04-22T12:09:52.592000
administracion de loteria,Administracion de Loterias El Gato Negro,Cl,Calle,San Agustin,65,38410,38031,Los Realejos,San Agustin,www.administracionloteriaselgatonegro.com,info@administracionloteriaselgatonegro.com,922342960.0,,-16.58511899,28.38875499,2016-05-09T12:45:15.374000,2023-10-18T14:04:54.665000
administracion de loteria,Administracion de Loterias El Mercado,CL,Calle,Mercado,2,38360,38041,El Sauzal,Mercado Municipal,,,922572287.0,,-16.43360556,28.48002499,2016-05-09T12:45:15.374000,2015-08-04T13:39:35.904000
administracion de loteria,Administracion de Loterias Estanco,CR,Carretera,General TF 28 Sur,127,38570,38012,Fasnia,El Rincon,,,,,-16.44185431,28.23618484,2016-05-09T12:45:15.374000,2015-11-12T08:47:28.324000
administracion de loteria,Administracion de Loterias N 1,AV,Avenida,Santa Cruz,27,38500,38020,Güimar,,,,,,-16.408628,28.31752999,2016-05-09T12:45:15.374000,2015-08-04T10:57:05.185000
administracion de loteria,Administracion de Loterias N 1,CL,Calle,San Agustin,37,38430,38022,Icod de los Vinos,,,,922121162.0,,-16.717231,28.36782299,2016-05-09T12:45:15.374000,2015-08-04T13:09:51.115000
administracion de loteria,Administracion de Loterias N 1,CL,Calle,Los Pobres,7,38280,38046,Tegueste,,,,,,-16.336796,28.52216299,2016-05-09T12:45:15.374000,2016-07-12T07:24:22.246000
administracion de loteria,Administracion de Loterias N 1,AV,Avenida,Canarias,5,38300,38026,La Orotava,,,,922330998.0,,-16.52233043,28.39201358,2016-05-09T12:45:15.374000,2019-02-20T12:22:09.739000
administracion de loteria,Administracion de Loterias N 1,CL,Calle,Alcalde Alonso Suarez Melian,10,38201,38023,La Laguna,,,,922259210.0,,-16.317264,28.48964599,2016-05-09T12:45:15.374000,2019-01-29T12:04:51.330000
administracion de loteria,Administracion de Loterias N 1,CR,Carretera,General TF 217 Norte,39,38380,38051,La Victoria,,,,922313081.0,,-16.465454,28.43629999,2016-05-09T12:45:15.374000,2015-08-04T13:35:09.001000
administracion de loteria,Administracion de Loterias N 1 Bonnet,CL,Calle,Santa Clara,1,38002,38038,Santa Cruz de Tenerife,,,,,,-16.25025143,28.47022824,2016-11-23T10:14:18.713000,2016-11-23T10:14:18.713000
administracion de loteria,Administracion de Loterias N 1 Candelaria,PZ,"Plaza, plazoleta",Patrona de Canarias,6,38509,38011,Candelaria,,,,,,-16.37060473,28.35185267,2016-05-09T12:45:15.374000,2016-02-18T10:32:45.109000
administracion de loteria,Administracion de Loterias N 1 El Carmen,AV,Avenida,Quinto Centenario,42,38683,38040,Santiago del Teide,Puerto de Santiago,,,922861611.0,,-16.84205801,28.23846246,2016-05-09T12:45:15.374000,2015-11-06T13:16:25.723000
administracion de loteria,Administracion de Loterias N 1 El Racimo,CR,Carretera,General TF 152 Norte,29,38350,38043,Tacoronte,La Estacion,,,922563615.0,,-16.41622708,28.47627855,2016-05-09T12:45:15.374000,2015-08-04T13:42:46.792000
administracion de loteria,Administracion de Loterias N 1 Hermano Pedro,CL,Calle,Calvario,26,38600,38017,Granadilla de Abona,,,santosenrique@terra.es,922773454.0,,-16.577569,28.12144399,2016-05-09T12:45:15.374000,2015-08-04T11:56:42.718000
administracion de loteria,Administracion de Loterias N 1 La Esperanza,Av,Avenida,Hipolito Sinforiano,24,38440,38018,La Guancha,La Guancha,,,922828457.0,,-16.651974,28.37435149,2023-10-18T12:08:17.876000,2023-10-18T12:08:17.876000
administracion de loteria,Administracion de Loterias N 11,AV,Avenida,Trinidad,30,38204,38023,La Laguna,,,,,,-16.316401,28.48626999,2016-05-09T12:45:15.374000,2015-08-05T08:36:24.706000
administracion de loteria,Administracion de Loterias N 16 El Trebol,AV,Avenida,Las Palmeras,42,38205,38023,La Laguna,Finca España,,,,,-16.29856828,28.47523156,2016-05-09T12:45:15,2018-01-12T11:45:10.510000
administracion de loteria,Administracion de Loterias N 19,AV,Avenida,Venezuela,26,38008,38038,Santa Cruz de Tenerife,,,,922216363.0,,-16.27147464,28.46917087,2016-05-09T12:45:15.374000,2015-11-06T12:04:22.493000
administracion de loteria,Administracion de Loterias N 2,CL,Calle,Manuel Bello Ramos,1,38670,38001,Adeje,,,,,,-16.72615244,28.12030604,2016-05-09T12:45:15.374000,2015-08-04T12:45:37.305000
administracion de loteria,Administracion de Loterias N 2,AV,Avenida,Santa Cruz,144,38611,38017,Granadilla de Abona,San Isidro letra A,,,922392462.0,,-16.557541,28.07518799,2016-05-09T12:45:15.374000,2016-04-15T07:59:10.224000
administracion de loteria,Administracion de Loterias N 2,CL,Calle,Heraclio Sanchez,40,38204,38023,La Laguna,,,,922631489.0,,-16.316318,28.48453399,2016-05-09T12:45:15.374000,2015-08-05T08:36:24.706000
administracion de loteria,Administracion de Loterias N 2,PZ,"Plaza, plazoleta",La Paz,2,38300,38026,La Orotava,,,,922320198.0,,-16.520098,28.39507799,2016-05-09T12:45:15.374000,2015-08-04T13:30:57.348000
administracion de loteria,Administracion de Loterias N 2,CL,Calle,San Agustin,17,38430,38022,Icod de los Vinos,,,,922121577.0,,-16.718053,28.36727599,2016-05-09T12:45:15.374000,2015-08-04T13:09:51.115000
administracion de loteria,Administracion de Loterias N 2 Los Realejos,Cl,Calle,El Puente,1,38410,38031,Los Realejos,San Agustin Ed Luisiana,,,922340200.0,,-16.58497506,28.38804058,2016-05-09T12:45:15.374000,2023-10-18T14:04:54.665000
administracion de loteria,Administracion de Loterias N 20,AV,Avenida,Principes de España,10,38010,38038,Santa Cruz de Tenerife,Ofra CC Los Principes,,,922656409.0,,-16.28548375,28.45284794,2016-05-09T12:45:15.374000,2017-11-24T11:51:53.496000
administracion de loteria,Administracion de Loterias N 22,CL,Calle,Bentagay,1,38111,38038,Santa Cruz de Tenerife,CC Santa Cruz Pt 0 Lc 08,,,922686875.0,,-16.30062956,28.42632557,2016-05-09T12:45:15.374000,2015-08-04T10:47:03.881000
administracion de loteria,Administracion de Loterias N 23,CR,Carretera,General TF 192 El Rosario,91,38010,38038,Santa Cruz de Tenerife,,,,922671929.0,,-16.28070139,28.45232101,2016-05-09T12:45:15.374000,2017-03-15T08:39:45.321000
administracion de loteria,Administracion de Loterias N 4 Cupido,CL,Calle,Cupido,10,38400,38028,Puerto de la Cruz,Ed Jamel III,,,,,-16.55131753,28.41480308,2016-11-25T14:08:56.566000,2017-03-24T07:20:14.928000
administracion de loteria,Administracion de Loterias N 4 El Gordo Feliz,AU,"Autopista, autovía",TF 5 Norte,0,38312,38026,La Orotava,CC La Villa Lc 069,www.onlae.com,loteriaelgordofeliz@telefonica.es,922326556.0,922322835.0,-16.54716666,28.39588006,2016-05-09T12:45:15.374000,2017-10-23T10:39:57.743000
administracion de loteria,Administracion de Loterias N 4 El Periquito,RB,Rambla,Dionisio Gonzalez,22,38631,38006,Arona,Las Galletas Ed Cabrera Toledo LC 3,www.loteriaselperiquito.com,info@loteriaselperiquito.com,922734123.0,0.0,-16.6578714,28.0077968,2016-05-09T12:45:15,2016-08-05T12:55:34.083000
administracion de loteria,Administracion de Loterias N 5,AV,Avenida,Taco,151,38108,38023,La Laguna,Taco,,francisco.aguiar@tubillete.com,922617861.0,,-16.2982642,28.44760447,2016-05-09T12:45:15.374000,2016-06-28T12:59:37.869000
administracion de loteria,Administracion de Loterias N 8,CL,Calle,Obispo Rey Redondo,11,38201,38023,La Laguna,,,,,,-16.315394,28.48785399,2016-05-09T12:45:15,2018-01-16T10:41:37.821000
administracion de loteria,Administracion de Loterias Nº2,CL,Calle,La Entrada,5,36680,38019,Guía de Isora,Guia de Isora,,loteriadeguia@hotmail.com,922850115.0,,-16.78113746,28.21168116,2016-05-09T12:45:15.374000,2019-04-12T11:56:11.551000
administracion de loteria,Administracion de Loterias San Roquito,CL,Calle,Esteban de Ponte,22,38450,38015,Garachico,,,clasove@hotmail.com,922833354.0,,-16.76500264,28.37364237,2016-05-09T12:45:15,2016-08-17T09:17:14.559000
administracion de loteria,Administracion de Loterias Sierva de Dios,AV,Avenida,Las Palmeras,9,38360,38041,El Sauzal,,,,922570078.0,,-16.434074,28.48026999,2016-05-09T12:45:15.374000,2015-08-04T13:39:35.904000
administracion de loteria,Administracion La Viejita d´Oro,AV,Avenida,Los Pescadores,33,38686,38019,Guía de Isora,Alcala,,,922865298.0,,-16.82763729,28.20170272,2016-05-09T12:45:15.374000,2019-04-12T11:56:11.551000
administracion de loteria,Administracion Loterias,PZ,"Plaza, plazoleta",Charco,0,38400,38028,Puerto de la Cruz,,,,,,-16.55089733,28.41613793,2018-01-19T10:53:58.657000,2018-01-19T10:53:58.657000
administracion de loteria,Administracion Loterias 16  El Chicharro,CL,Calle,Bethencourt Alfonso,25,38002,38038,Santa Cruz de Tenerife,,,,922306485.0,,-16.250181,28.4674045,2022-04-22T12:09:52.592000,2022-04-22T12:09:52.592000
administracion de loteria,Administracion Loterias 7,CL,Calle,Imeldo Seris,82,38003,38038,Santa Cruz de Tenerife,,www.loteriaquetoca.com,loteriaquetoca@gmail.com,922534179.0,,-16.25304225,28.46709168,2022-04-22T12:09:52.592000,2022-04-22T12:09:52.592000
administracion de loteria,Administracion Loterias N 1 Tijarafe,CR,Carretera,Provincial TF 217,5,38390,38039,Santa Úrsula,,,,922301120.0,,-16.49225571,28.42502341,2016-05-09T12:45:15,2018-04-13T12:43:52.516000
alquiler vehiculos,Adoja Rent a Car,CL,Calle,Doctor Celestino Gonzalez Padron,8,38400,38028,Puerto de la Cruz,Ur La Paz Rs Flora,,,639339004.0,922386632.0,-16.53080527,28.41241673,2016-07-29T10:42:02.727000,2018-12-10T12:41:52.613000
peluqueria estetica,Adolfo Delgado La Barberia,CL,Calle,Los Angeles,15,38683,38040,Santiago del Teide,Puerto de Santiago,,,600607019.0,,-16.84105091,28.23835608,2016-05-09T12:45:15.374000,2016-06-07T14:18:36.798000
asesoria consultoria gestoria,Adolfo Perez de la Rosa ,PG,Polígono,Industrial Valle de Guimar,0,38509,38004,Arafo,PG GUIMAR MZ C PARC 1B Planta 1ª Local 2 ED TASTUSA,,,922514208.0,,-16.37131754,28.33114281,2018-03-13T11:51:22.132000,2018-03-13T11:51:22.132000
servicios profesionales limpieza,Adom,CL,Calle,Benjamin Franklin,22,38109,38032,El Rosario,PI La Campana San Isidro,www.adom.es,comercial@adom.es,922615922.0,922613248.0,-16.31685057,28.41219994,2017-02-15T11:40:07.893000,2017-06-28T12:17:01.551000
servicios profesionales limpieza,Adom,CL,Calle,Benjamin Franklin,22,38109,38032,El Rosario,PI La Campana San Isidro,www.adom.es,comercial@adom.es,922615922.0,922613248.0,-16.31672019,28.41188987,2017-02-15T11:40:07.893000,2017-06-28T12:17:01.551000
servicios profesionales limpieza,Adom,CL,Calle,Benjamin Franklin,11,38109,38032,El Rosario,PI La Campana San Isidro,www.adom.es,comercial@adom.es,922615922.0,922613248.0,-16.31660771,28.41200332,2017-02-15T11:40:07.893000,2017-06-28T12:17:01.551000
servicios seguridad,Adt Seguridad,CR,Carretera,General TF 152 Norte,17,38360,38041,El Sauzal,,,,,,-16.417902,28.47482299,2016-05-09T12:45:15.374000,2015-08-04T13:39:35.904000
asesoria consultoria gestoria,AFC Asesoria Laboral y Contable,CL,Calle,Alvarez de Lugo,9,38004,38038,Santa Cruz de Tenerife,,,,0.0,,-16.25749616,28.46970218,2016-05-09T12:45:15.374000,2016-01-08T07:55:38.779000
agencia aduanas mercancias transporte,Afiadeca,CL,Calle,Panama,0,38009,38038,Santa Cruz de Tenerife,P I Costa Sur Buenos Aires Edificio Luna,,,922228846.0,,-16.26648268,28.45457427,2017-02-15T11:40:07.893000,2017-03-10T09:05:18.142000
administracion inmobiliaria,Afisecan Administracion de Comunidades,CL,Calle,Iriarte,13,38612,38017,Granadilla de Abona,El Medano,www.afisecan.com,info@afisecan.com,902102722.0,,-16.537705,28.04531759,2016-05-09T12:45:15.374000,2016-06-16T09:21:53.322000
peluqueria estetica,Africa y Vicky Estetica,CL,Calle,Nuñez de la Peña,5,38201,38023,La Laguna,,,,922630142.0,,-16.31743051,28.48983644,2016-08-02T07:53:32.309000,2016-08-02T07:53:32.309000
agencia aduanas mercancias transporte,Agencia Calzadilla,CL,Calle,El Cilantro,10,38107,38038,Santa Cruz de Tenerife,Pg El Molino,www.agenciacalzadilla.com,agenciacalzadilla@agenciacalzadilla.com,922619204.0,922621362.0,-16.31658953,28.42310539,2016-05-09T12:45:15.374000,2016-06-15T14:51:01.958000
agencia aduanas mercancias transporte,Agencia Calzadilla,CL,Calle,El Gofio,5,38107,38038,Santa Cruz de Tenerife,Pg El Molino,,atlantictfe@atlantic-canarias.agenciacalzadilla@agenciacalzadilla.com,922245054.0,922621362.0,-16.31587693,28.42261517,2016-05-09T12:45:15.374000,2018-12-12T14:21:12.507000
agencias de noticias,Agencia Canaria de Economia,AV,Avenida,San Sebastian,84,38005,38038,Santa Cruz de Tenerife,,www.agenciace.com,agencia@agenciace.com,922520113.0,922224714.0,-16.25459438,28.46372429,2016-05-09T12:45:15,2016-06-20T09:47:08
agencia aduanas mercancias transporte,Agencia De La Rosa Aduanas y Transitos,PG,Polígono,Industrial Valle de Guimar,0,38509,38004,Arafo,Pg Guimar,www.juandelarosa.es,juan@juandelarosa.es,922214044.0,,-16.36582236,28.33341701,2016-05-09T12:45:15.374000,2016-11-09T09:37:12.779000
aseguradora,Agencia de Seguros Corporacion Directa,CL,Calle,Vista Alegre,12,38380,38051,La Victoria,,,agiavictoriadeacentejo@coporaciondirecta.es,922581681.0,,-16.46688704,28.43504801,2016-05-09T12:45:15.374000,2015-11-24T13:40:29.270000
agencias de noticias,Agencia Efe,CL,Calle,La Marina,7,38002,38038,Santa Cruz de Tenerife,Ed Hamilton Pl 5,www.efe.es,tnredaccion@efe.es,922242179.0,922246673.0,-16.24796662,28.46816963,2016-05-09T12:45:15,2015-08-04T10:16:43
administracion inmobiliaria,Agencia Inmobiliaria Dorta Hermanos,CL,Calle,Jose Rodriguez Ramirez,11,38005,38038,Santa Cruz de Tenerife,,www.shd.es,,922237067.0,,-16.255713,28.46184199,2016-05-09T12:45:15.374000,2015-08-04T10:26:16.678000
agencia aduanas mercancias transporte,Agencia Rodriguez Express,CM,Camino,La Espiga,0,38206,38023,La Laguna,Pg Los Rodeos,,agencia@arexpress.es,922315671.0,922253824.0,-16.35153213,28.49072104,2016-05-09T12:45:15.374000,2016-11-09T09:37:12.779000
mensajeria paqueteria,Agencia Rodriguez Express,CL,Calle,Zerolo,0,38320,38023,La Laguna,Pg La Cuesta Taco Nv 2,,,922315671.0,922639687.0,-16.29441653,28.45955641,2016-08-12T11:12:01.997000,2016-11-09T09:37:12.779000
agencia aduanas mercancias transporte,Agencia Transitos Carlos Rodriguez,AV,Avenida,Bartolome Cairasco,113,38206,38023,La Laguna,El Coromoto,www.transitosrodriguez.com,,922284342.0,922249826.0,-16.32728158,28.48147037,2016-08-12T13:48:34.065000,2018-12-12T09:58:52.120000
agencia aduanas mercancias transporte,Agencia Transitos Rodriguez,CL,Calle,San Vicente Ferrer,5,38002,38038,Santa Cruz de Tenerife,Pl 1 Of D,,transitoscarlosrguez@gmail.com,922284342.0,922249826.0,-16.2483461,28.46964264,2017-08-02T10:14:14,2018-12-13T11:51:56.205000
agencia aduanas mercancias transporte,Agencia Yazeli,CL,Calle,Villalba Hervas,9,38002,38038,Santa Cruz de Tenerife,Ed Camacho Pl 3 Of 5,www.yazeli.com,trans@yazeli.com,922241475.0,922243767.0,-16.24917549,28.46768464,2016-05-09T12:45:15,2018-01-17T09:31:06
servicios otro tipo,Agener Canarias,Cl,Calle,Toscal,22,38417,38031,Los Realejos,Bajo El Toscal Longuera,Agenercanarias.com,info@agenercanarias.com,922567356.0,,-16.57172431,28.40103297,2023-10-18T12:08:17.876000,2023-10-18T12:08:17.876000
aseguradora,Agente de Seguro Julian C Gonzalez Alvarez,CL,Calle,Medio Arriba,31,38410,38031,Los Realejos,Realejo Alto,,,922343470.0,,-16.58512845,28.37861069,2016-05-09T12:45:15.374000,2015-08-04T13:18:21.764000
agencia aduanas mercancias transporte,Agro Transitos,CL,Calle,Fomento,7,38003,38038,Santa Cruz de Tenerife,Cabo Llanos Pl 2 Of 12B,,,922249816.0,922249762.0,-16.25336117,28.4581883,2016-05-09T12:45:15,2015-08-04T10:22:19
administracion inmobiliaria,Aguacada Gesfincas,CL,Calle,Francisco Alonso Martin Barbero,7,38240,38023,La Laguna,Punta del Hidalgo La Furnia,,,922156849.0,,-16.32776951,28.56847707,2016-05-09T12:45:15,2018-02-15T09:44:33.614000
asesoria consultoria gestoria,AH Asesoras,CL,Calle,El Toscal,21,38417,38031,Los Realejos,El Toscal,www.ahasesores.com,info@ahasesores.com,922363145.0,922362818.0,-16.57488332,28.39995,2016-05-09T12:45:15.374000,2023-10-18T14:41:54.296000
servicios otro tipo,AIM Arquitectura,CL,Calle,Jesus Nazareno,10,38003,38038,Santa Cruz de Tenerife,,,,,,-16.25425371,28.46804112,2022-04-22T12:09:52.592000,2022-04-22T12:09:52.592000
servicios otro tipo,Air Refill,CL,Calle,La Plaza,1,38686,38019,Guía de Isora,,,funavia@yahoo.com,699889947.0,,-16.82721884,28.20046397,2019-04-12T16:38:45.443000,2019-04-12T16:38:45.443000
servicios profesionales traduccion,Airam Ramos,CL,Calle,Juan Ramos,130,38355,38043,Tacoronte,,,eco.airam@gmail.com,699538081.0,,-16.3864189,28.47072359,2016-08-16T09:51:08.893000,2016-08-31T13:12:50.625000
servicios profesionales limpieza,Airsol Canarias,CL,Calle,Laura Grote De La Puerta,8,38110,38038,Santa Cruz de Tenerife,P I El Mayorazgo Nave 10,www.airsolcanarias.com,www.airsolcanarias.com/contacto,922574678.0,922283355.0,-16.28452446,28.44282757,2017-07-04T14:04:45.398000,2017-07-04T14:04:45.398000
peluqueria estetica,Aisha Peluqueras,AV,Avenida,Los Pescadores,33,38686,38019,Guía de Isora,,,,672197225.0,,-16.82742851,28.20154943,2019-04-12T16:38:45.443000,2019-04-12T16:38:45.443000
albergue mascotas,Albergue Comarcal Valle Colino,Cl,Calle,Cartagena,s/n,38205,38023,La Laguna,Finca España,https://www.alberguevallecolino.org,info@alberguevallecolino.org,673895015.0,,-16.30092209,28.48278434,2023-10-18T12:07:07.565000,2023-10-18T12:07:07.565000
peluqueria estetica,Alberto Cerdan Peluqueria,CL,Calle,Herradores,83,38201,38023,La Laguna,,,,,,-16.31881,28.48923399,2016-05-09T12:45:15.374000,2015-08-03T12:38:01.029000
servicios profesionales traduccion,Alberto de la Cruz,CL,Calle,Virgen del Carmen,1,38170,38038,Santa Cruz de Tenerife,Los Campitos Vd 15,,,922281107.0,922291785.0,-16.25887634,28.48301735,2016-08-16T12:46:01,2017-04-04T07:56:05.507000
peluqueria estetica,Alberto Reyes Peluqueros,CL,Calle,Cecilio Marrero,1,38355,38043,Tacoronte,Lc 4 Agua Garcia,www.facebook.com/AR-peluqueros-560602970707695/,,922585468.0,,-16.40170408,28.46843549,2016-05-09T12:45:15.374000,2018-05-24T17:22:06.194000
peluqueria estetica,Alcides Peluqueros,AV,Avenida,Islas Canarias,16,38006,38038,Santa Cruz de Tenerife,,es-es.facebook.com/alcidespeluqueros,,922285708.0,,-16.26323223,28.46808577,2016-05-09T12:45:15.374000,2018-01-17T11:50:16.638000
peluqueria estetica,Aldo Basi,CL,Calle,Mendez Nuñez,61,38001,38038,Santa Cruz de Tenerife,,www.aldobasi.com,,922288035.0,0.0,-16.25021351,28.47451848,2016-05-09T12:45:15.374000,2016-02-18T10:32:45.109000
peluqueria estetica,Aldo Basi,CL,Calle,Coslada,4,38204,38023,La Laguna,Ed Coslada,,,,,-16.31767601,28.48588361,2016-05-09T12:45:15.374000,2015-08-24T13:04:24.481000
peluqueria estetica,Aldo Basi,AV,Avenida,Asuncion,2,38006,38038,Santa Cruz de Tenerife,,www.aldobasi.com,info@aldobasi.com,922278090.0,,-16.26169193,28.46756063,2016-05-09T12:45:15.374000,2016-02-18T10:32:45.109000
peluqueria estetica,Alejandro y Valentina,CL,Calle,Los Gonzalez,14,38611,38017,Granadilla de Abona,San Isidro,,,663488844.0,,-16.5569973,28.0764059,2016-05-09T12:45:15.374000,2017-05-16T10:22:12.840000
asesoria consultoria gestoria,Alenera Technology,CL,Calle,Siempreviva,60,38107,38038,Santa Cruz de Tenerife,La Gallega,www.alenera.es,marcosalonso@alenera.es,616639089.0,922970461.0,-16.31985816,28.43320426,2016-05-09T12:45:15.374000,2016-05-12T11:46:34.975000
peluqueria estetica,Alex Peluqueros,CL,Calle,Salamanca,30,38006,38038,Santa Cruz de Tenerife,,www.alexpeluqueros.com,info@alexpeluquerostf.es,922289476.0,,-16.26335,28.46904245,2016-05-09T12:45:15.374000,2016-06-07T14:37:57.214000
peluqueria estetica,Alexander,CL,Calle,Jose Ventura,17,38611,38017,Granadilla de Abona,San Isidro,,,616685035.0,,-16.56019913,28.07880992,2016-05-09T12:45:15.374000,2015-08-04T11:58:50.747000
peluqueria estetica,Alexup Peluqueros,AV,Avenida,Venezuela,2,38007,38038,Santa Cruz de Tenerife,Lc 2A,,,922029060.0,,-16.26982241,28.4654919,2016-05-09T12:45:15,2016-06-13T14:03:40
asesoria consultoria gestoria,Aliades,CL,Calle,Nava y Grimon,9,38201,38023,La Laguna,,www.aliades.com,aliades@aliades.com,669795910.0,922083425.0,-16.31349606,28.48891128,2016-05-09T12:45:15.374000,2017-03-30T09:15:34.104000
peluqueria estetica,Aliana Peluqueros,CL,Calle,Ricardo Melchior Booth,5,38270,38023,La Laguna,Valle de Guerra,es-es.facebook.com/aliana.peluqueros,,922541856.0,,-16.39234144,28.5166258,2016-05-09T12:45:15.374000,2016-04-14T14:45:34.368000
peluqueria estetica,Aliari Nails,AV,Avenida,Santa Cruz,61,38611,38017,Granadilla de Abona,San Isidro Lc 2,,aliarinails@hotmail.es,922395257.0,,-16.558971,28.08063199,2016-05-09T12:45:15.374000,2016-05-19T12:54:54.539000
peluqueria estetica,Alicia Perez,AV,Avenida,Santa Cruz,44,38611,38017,Granadilla de Abona,San Isidro,,,727773612.0,,-16.5606853,28.0815601,2016-05-09T12:45:15.374000,2017-05-16T10:22:12.840000
peluqueria estetica,Aline Salon de Belleza,CL,Calle,Los Fundadores,5,38631,38006,Arona,Las Galletas,,,922731396.0,0.0,-16.65451561,28.00682043,2016-05-09T12:45:15.374000,2015-08-04T12:36:55.984000
administracion inmobiliaria,Alk Blindado,Cl,Calle,La Longuera,,38418,38031,Los Realejos,,,Alkilerblindado@gmail.com,652492788.0,,-16.5778598,28.39800944,2023-10-18T12:08:17.876000,2023-10-18T12:08:17.876000
logistica,Alkur Servicios Generales,CL,Calle,J Gutenberg,10,38109,38032,El Rosario,PI La Campana San Isidro,www.alkur2012.wic.com/alkur,alkursg@gmail.com,659819208.0,,-16.31896106,28.41523976,2017-02-15T11:40:07.893000,2017-06-28T12:03:36.848000
estudio arquitectura ingenieria,Almacen Estudios del Terreno,CR,Carretera,La Esperanza TF-226,6,38355,38043,Tacoronte,Agua Garcia,www.estudiosdelterreno.com,info@estudiosdelterreno.com,922575171.0,,-16.40398403,28.4633678,2018-05-09T09:56:24.390000,2018-05-29T10:03:03.749000
servicios audiovisuales,Alonso y Alonso,CL,Calle,Subida Al Mayorazco,7,38110,38038,Santa Cruz de Tenerife,P I El Mayorazgo,www.alondoyalonso.com,info@alonsoyalonso.com,922285442.0,922610732.0,-16.28333978,28.44531846,2017-02-15T11:40:07.893000,2017-02-16T13:51:26.067000
servicios profesionales limpieza,Alosan Limpiezas,CL,Calle,Aires de Lima,31,38107,38038,Santa Cruz de Tenerife,El Sobradillo,www.alosanlimpiezas.com,alosan@alosanlimpiezas.com,922617286.0,922615045.0,-16.31475243,28.44480048,2016-05-09T12:45:15.374000,2016-08-05T12:31:19.216000
servicios otro tipo,Alquila Todo,CL,Calle,El Velero,2,38687,38019,Guía de Isora,Playa de San Juan,www.alquilatodo.info/ alquila-TODO,,922138308.0,,-16.81407313,28.18271421,2016-05-09T12:45:15.374000,2019-04-12T11:56:11.551000
alquiler vehiculos,Alquiler de Coches Bernardino,AV,Avenida,Mediterraneo,3,38612,38017,Granadilla de Abona,El Medano,www.bernardino-rentacar.com,,922176205.0,,-16.5365522,28.0457225,2016-05-09T12:45:15.374000,2017-05-16T10:22:12.840000
administracion inmobiliaria,Alquiler Protegido,AV,Avenida,Santa Cruz,66,38611,38017,Granadilla de Abona,San Isidro CC Atogo,,tenerife@arquilerprotegido.es,922173113.0,,-16.559025,28.079738,2016-05-09T12:45:15.374000,2017-05-16T10:22:12.840000
servicios profesionales limpieza,Alquimia Control de Plagas,CL,Calle,Martin,5,38107,38038,Santa Cruz de Tenerife,Tincer bajo,,,620230064.0,,-16.30231427,28.44263462,2017-07-05T08:40:24.206000,2017-07-05T08:40:24.206000
asesoria consultoria gestoria,Alsuek,CR,Carretera,General TF 28 Sur,116,38626,38006,Arona,Valle San Lorenzo,,alsuek@telefonica.net,922722225.0,922722341.0,-16.65674944,28.09113891,2016-05-09T12:45:15.374000,2015-08-04T12:31:10.347000
administracion inmobiliaria,Altamira Asesores Inmobiliarios,AV,Avenida,Jose Miguel Galvan Bello,10,38612,38017,Granadilla de Abona,El Medano,,altamiraasesoresinmobiliarios@gmail.com,922177290.0,922179152.0,-16.536127,28.04431919,2016-05-09T12:45:15.374000,2016-02-18T10:32:45.109000
servicios audiovisuales,Aluzine,CL,Calle,Villalba Hervas,9,38002,38038,Santa Cruz de Tenerife,Ed Camacho Pt 8,www.aluzine.tv,atlantico@aluzine.tv,607563250.0,916324946.0,-16.24921605,28.46764988,2017-06-21T10:35:09.850000,2017-06-21T10:35:09.850000
servicios profesionales abogacia,Alvarez Abogados y Asesores,PZ,"Plaza, plazoleta",Santa Ursula,0,38390,38039,Santa Úrsula,,www.alvarezabogadosyasesores.com,franciscoalvarezseguros@hotmail.com,660449127.0,922303320.0,-16.49152135,28.42580585,2018-02-01T08:54:57.424000,2018-02-21T07:52:56.647000
administracion inmobiliaria,Aly Metal,PG,Polígono,Industrial de Granadilla,0,38594,38017,Granadilla de Abona,Pg Granadilla,,,922778052.0,,-16.49865122,28.09086593,2016-05-09T12:45:15.374000,2016-11-09T09:37:12.779000
alquiler vehiculos,Allround Service,CL,Calle,Francia,5,38190,38032,El Rosario,Tabaiba Baja,,,,,-16.331955,28.40415599,2016-05-09T12:45:15.374000,2015-11-20T14:01:55.134000
servicios profesionales moda,Amarca Atelier,CL,Calle,Calvario,42,38300,38026,La Orotava,,www.amarca-atelier.com,d-amarca@hotmail.com,922323801.0,,-16.52168006,28.39309427,2017-06-27T13:07:52.829000,2018-03-20T10:44:54.401000
administracion de loteria,Amelia RF,CL,Calle,Agustin de Betancourt,5,38400,38028,Puerto de la Cruz,,,,,,-16.54948164,28.41721932,2022-04-22T12:09:52.592000,2022-04-22T12:09:52.592000
peluqueria estetica,American Beauty Uñas y Mas,CL,Calle,Tenerife,2,38612,38017,Granadilla de Abona,El Medano,,,,,-16.538751,28.04682729,2016-05-09T12:45:15.374000,2016-12-12T10:43:21.828000
peluqueria estetica,AMV Peluqueria y estetica,CL,Calle,Orion,18,38205,38023,La Laguna,Gracia,,,922263333.0,,-16.3074462,28.47411946,2017-10-30T14:01:41.287000,2017-10-30T14:01:41.287000
servicios profesionales traduccion,Ana Isabel Martin,CL,Calle,Charco del Musgo,1,38530,38011,Candelaria,Las Caletillas,,ai.martinlopez@yahoo.es,689085774.0,,-16.36242754,28.37898598,2016-08-16T13:23:30.479000,2016-08-16T13:23:30.479000
peluqueria estetica,Ana Jimenez Dermoestetica,CL,Calle,Doctor Cristino Diaz Martinez,27,38006,38038,Santa Cruz de Tenerife,,www.clinica-anajimenez.com,,922901632.0,922246060.0,-16.25999378,28.47288267,2016-08-02T07:41:02.042000,2016-08-18T09:00:06.204000
peluqueria estetica,Ana Jimenez Dermoestetica,AV,Avenida,Leopoldo Cologan Zulueta,14,38400,38028,Puerto de la Cruz,Ur La Paz,www.clinicaana-jimenez.com,,922901633.0,922246060.0,-16.5377213,28.41568996,2016-08-02T07:41:02.042000,2016-08-02T12:58:20.563000
servicios profesionales traduccion,Ana Lima,CM,Camino,La Montañeta,64,38359,38041,El Sauzal,Ravelo,,,630967036.0,922584393.0,-16.42773992,28.46202552,2016-08-16T10:38:23.372000,2016-08-16T10:38:23.372000
peluqueria estetica,Ana Peluqueria,AV,Avenida,Islas Canarias,7,38632,38006,Arona,El Fraile,,,922730823.0,0.0,-16.66957593,28.01175478,2016-05-09T12:45:15.374000,2015-08-04T12:35:04.641000
servicios otro tipo,Ana Quinteros,CL,Calle,San Pedro Alcantara,3,38003,38038,Santa Cruz de Tenerife,,,,722848723.0,,-16.24953029,28.46653704,2022-04-22T12:09:52.592000,2022-04-22T12:09:52.592000
peluqueria estetica,Anabel,CR,Carretera,General TF 333 La Montañeta,38,38419,38031,Los Realejos,La Montañeta,,,0.0,,-16.56087321,28.38888516,2016-05-09T12:45:15,2016-06-06T10:10:13.291000
alquiler vehiculos,Anaga Rent a Car,CL,Calle,Emilio Calzadilla,10,38002,38038,Santa Cruz de Tenerife,,,,922274953.0,0.0,-16.2486454,28.46892041,2016-05-09T12:45:15.374000,2016-05-23T07:38:57.726000
agencia aduanas mercancias transporte,Analogic Forwarding,PS,Paseo,Milicias de Garachico,1,38002,38038,Santa Cruz de Tenerife,Ed Hamilton Pl 2 Of 27,,,922082067.0,922712297.0,-16.24820486,28.4681711,2016-05-09T12:45:15,2016-11-28T12:34:06
peluqueria estetica,Anaqua,CL,Calle,Obispo Perez Caceres,41,38509,38011,Candelaria,Ed Montserrat Lc 8,,,922506494.0,,-16.37020234,28.35371694,2016-05-09T12:45:15.374000,2015-08-04T10:53:32.454000
peluqueria estetica,Andres Peluqueria de Caballeros,CL,Calle,Abajo,10,36680,38019,Guía de Isora,Guia de Isora,,andrespelu10.pm@gmail.com,626436653.0,,-16.78047629,28.21092041,2016-05-09T12:45:15.374000,2019-04-12T11:56:11.551000
peluqueria estetica,Angela  Dominguez Peluqueria,CL,Calle,Santa Isabel,12,38627,38006,Arona,Cabo Blanco,,johanaliss@hotmail.com,922728248.0,0.0,-16.67117524,28.07501909,2016-05-09T12:45:15.374000,2015-08-04T12:33:12.065000
servicios profesionales traduccion,Anglo Saxon Academy,PZ,"Plaza, plazoleta",Veinticinco de Julio,4,38004,38038,Santa Cruz de Tenerife,,www.traduccionesencanarias.com,,922244937.0,,-16.25610945,28.47060384,2016-08-16T09:46:27.443000,2016-08-16T09:46:27.443000
peluqueria estetica,Angora Centro de belleza,AV,Avenida,Arzobispo Jose Gonzalez Rivas,24,38611,38017,Granadilla de Abona,San Isidro Lc 1,,,922394416.0,,-16.560256,28.07857299,2016-05-09T12:45:15.374000,2016-06-29T13:45:59.828000
peluqueria estetica,Angys Peluqueros,CL,Calle,Puerto Escondido,3,38002,38038,Santa Cruz de Tenerife,Ed Puerto Escondido Lc 7,angy-s-peluqueros.negocio.site,,922278327.0,,-16.25138003,28.46949657,2022-04-22T12:09:52.592000,2022-04-22T12:09:52.592000
peluqueria estetica,Anly Peluquera's,CL,Calle,Eduardo de Roo,62,38320,38023,La Laguna,La Cuesta Bo La Candelaria,,,922646207.0,,-16.28807831,28.47281668,2016-05-09T12:45:15.374000,2015-08-27T10:21:38.492000
peluqueria estetica,Anna Nails,CL,Calle,Mendez Nuñez,17,38003,38038,Santa Cruz de Tenerife,,,,922287190.0,0.0,-16.25410918,28.47026291,2016-05-09T12:45:15,2016-06-08T12:25:37.112000
peluqueria estetica,Anna Pett,CL,Calle,Jorge Manrique,5,38005,38038,Santa Cruz de Tenerife,Ed Rocinante,,,922035344.0,,-16.26033607,28.46084735,2016-05-09T12:45:15.374000,2016-01-08T10:00:13.057000
servicios audiovisuales,Antena 3,AV,Avenida,Constitucion,1,38003,38038,Santa Cruz de Tenerife,Parque Maritimo La Cascada,www.a3n.tv,tenerife@a3n.tv,922236510.0,922222967.0,-16.25565116,28.45321421,2017-07-26T12:15:20.601000,2017-07-26T12:15:20.601000
estudio arquitectura ingenieria,Antonio Lopez Gonzalez Arquitecto Tecnico,CL,Calle,Los Pobres,67,38280,38046,Tegueste,,,,,,-16.3428144,28.52403595,2016-05-09T12:45:15.374000,2016-05-24T09:53:31.081000
peluqueria estetica,Antonio y Gonzalo,CL,Calle,Pescote,24,38300,38026,La Orotava,,,,900320044.0,,-16.52475272,28.38576373,2016-05-09T12:45:15.374000,2016-02-15T09:29:26.116000
peluqueria estetica,Anyels Estilistas,CL,Calle,Puerta Canseco,35,38003,38038,Santa Cruz de Tenerife,,,,922299180.0,,-16.25319345,28.46640964,2016-05-09T12:45:15.374000,2018-03-15T09:41:50.442000
albergue mascotas,APANOT,Cm,Camino,Pino Valois,27,38434,38022,Icod de los Vinos,,,,922121447.0,,-16.68514884,28.35156854,2023-10-19T08:28:47.094000,2023-10-19T08:28:47.094000
administracion inmobiliaria,API Viviendas Canarias,CL,Calle,Candida Peña Bello,14,38631,38006,Arona,Las Galletas,www.viviendas-canarias.net,,922784149.0,0.0,-16.65502306,28.00775434,2016-05-09T12:45:15.374000,2015-08-04T12:36:55.984000
asesoria consultoria gestoria,Apolinar Asesores,Cl,Calle,La Alhondiga,37,38480,38010,Buenavista del Norte,,www.apolinarasesores.es,,922320956.0,,-16.8504841,28.37065287,2023-10-18T12:08:17.876000,2023-10-18T12:08:17.876000
servicios fontaneria saneamiento,Aqualia,CL,Calle,Campamento,4,38280,38046,Tegueste,,,,,,-16.33899753,28.51984162,2016-05-09T12:45:15.374000,2016-02-18T10:32:45.109000
servicios fontaneria saneamiento,Aqualia Aguas Municipales de Guimar,CL,Calle,La Laguna,29,38500,38020,Güimar,,,,,,-16.40941,28.31340799,2016-05-09T12:45:15.374000,2015-08-04T10:57:05.185000
peluqueria estetica,Aquiles Permuy Hair y Beauty,AV,Avenida,Angel Guimera,54,38003,38038,Santa Cruz de Tenerife,,aquilespermuy.com,info@aquilespermuy.com,922092834.0,,-16.25378366,28.46689191,2022-04-22T12:09:52.592000,2022-04-22T12:09:52.592000
asesoria consultoria gestoria,Arafo Asesores,CL,Calle,Los Sabandeños,3,38550,38004,Arafo,Ed Nivaria Lc 3,,arafo.asesores@gmail.com,605814671.0,922527300.0,-16.42004669,28.34123379,2019-04-10T11:42:25.875000,2019-04-10T11:42:25.875000
servicios otro tipo,Arca Automóviles,CL,Calle,Pleamar,5,38687,38019,Guía de Isora,,,arca-automoviles@hotmail.com,922134260.0,,-16.81706246,28.1836059,2019-04-12T16:38:45.443000,2019-04-12T16:38:45.443000
administracion inmobiliaria,Arca Canarias,CL,Calle,Subida Al Mayorazco,24,38110,38038,Santa Cruz de Tenerife,P I El Mayorazgo B Edificio Arca,www.arca-canarias.com,info@arca-canarias.com,0.0,922595875.0,-16.28609691,28.44528536,2017-02-15T11:40:07.893000,2017-02-16T13:51:26.067000
administracion inmobiliaria,Arca Canarias,CL,Calle,Subida Al Mayorazco,24,38110,38038,Santa Cruz de Tenerife,P I El Mayorazgo A Edificio Arca,,,0.0,,-16.28622495,28.44517921,2017-02-15T11:40:07.893000,2017-02-16T13:51:26.067000
administracion inmobiliaria,Arca Canarias,CL,Calle,Subida Al Mayorazco,24,38110,38038,Santa Cruz de Tenerife,P I El Mayorazgo A Edificio Arca,,,0.0,,-16.28622495,28.44517921,2017-02-15T11:40:07.893000,2017-02-16T13:51:26.067000
servicios otro tipo,Arcano Mayor,AV,Avenida,San Sebastian,86,38005,38038,Santa Cruz de Tenerife,,,,922983652.0,,-16.2547026,28.46372228,2016-05-09T12:45:15.374000,2016-02-18T10:32:45.109000
alquiler vehiculos,Archipielago Renting,CL,Calle,Subida Al Mayorazco,7,38110,38038,Santa Cruz de Tenerife,P I El Mayorazgo,www.mundorenting.com,rentacar@mundorenting.com,902350038.0,922207272.0,-16.28183515,28.44491999,2017-02-15T11:40:07.893000,2017-02-16T13:51:26.067000
servicios audiovisuales,Archipielago TV,CL,Calle,San Isidro,3,38300,38026,La Orotava,,,atv_tenerifenorte@lycos.es,922323454.0,922323454.0,-16.51864996,28.3947057,2017-07-26T12:19:57.205000,2017-07-26T12:19:57.205000
servicios otro tipo,Arena Tattoo,AV,Avenida,Maritima,31,38683,38040,Santiago del Teide,Puerto de Santiago CC Seguro de Sol Lc 29,,,922862615.0,,-16.84027122,28.23054598,2016-05-09T12:45:15.374000,2016-09-30T10:45:59.304000
servicios electricidad electronica,Argache Montajes Electricos,AV,Avenida,Arzobispo Jose Gonzalez Rivas,6,38611,38017,Granadilla de Abona,San Isidro,www.argache.es,info@argache.es,638432274.0,922392721.0,-16.55929901,28.07923261,2016-06-29T13:50:20.399000,2016-06-30T08:42:57.786000
servicios otro tipo,Argos Life Saving (socorrismo),AV,Avenida,Isora,,36680,38019,Guía de Isora,,,manuel@argoslifesaving.com,626817227.0,,-16.78279192,28.21357118,2019-04-12T16:38:45.443000,2019-04-12T16:38:45.443000
servicios otro tipo,Arista,AV,Avenida,Los Majuelos,4,38107,38038,Santa Cruz de Tenerife,El Sobradillo,www.grupoarista.es,,922610090.0,,-16.30972581,28.44510914,2016-05-09T12:45:15.374000,2016-05-12T08:52:00.536000
servicios otro tipo,Arito Tattoo,GL,Glorieta,Isla de La Gomera,3,38107,38038,Santa Cruz de Tenerife,La Gallega Galeria Comercial Lc 12,,,608212888.0,,-16.32121513,28.4309396,2016-05-11T14:40:57.293000,2023-11-13T13:26:29.939000
servicios otro tipo,Armonia,CL,Calle,La Rosa,55,38001,38038,Santa Cruz de Tenerife,,,,922198589.0,0.0,-16.24883679,28.4726256,2016-05-09T12:45:15.374000,2016-06-16T09:21:53.322000
servicios otro tipo,Aroma Thai,CL,Calle,Aldea,3,38400,38028,Puerto de la Cruz,,aromathaimassage.es,reservasaromathaimassage@gmail.com,662128385.0,,-16.54569824,28.41714196,2022-04-22T12:09:52.592000,2022-04-22T12:09:52.592000
estudio arquitectura ingenieria,Arqing Servicios de Arquitectura e Ingenieria,CL,Calle,Tosca de la Iglesia,48,38390,38039,Santa Úrsula,,www.arqing.es,ceo@arqing.es,660046086.0,922300695.0,-16.48991465,28.42258416,2016-05-09T12:45:15,2018-04-10T14:25:43.419000
estudio arquitectura ingenieria,Arquitecto Marcos A Cruz Gonzalez,CR,Carretera,General TF 152 Norte,47,38350,38043,Tacoronte,La Estacion Ed Acosta Lc 9,www.fabricatucasa.com,arquitectomarcos@hotmail.com,922562568.0,,-16.41467534,28.47731918,2018-05-22T11:08:41.728000,2018-05-22T11:08:41.728000
estudio arquitectura ingenieria,Arquitecto Tecnico Samuel Garcia,Av,Avenida,Ulpiano Perez Barrios,5,38480,38010,Buenavista del Norte,,,samuelgarcia79@gmail.com,699635702.0,,-16.85013222,28.37273948,2023-10-18T12:08:17.876000,2023-10-18T12:08:17.876000
estudio arquitectura ingenieria,Arquitectos Tecnicos de Canarias,CL,Calle,Nuestra Señora de la Ternura,0,38108,38023,La Laguna,Pg Poligono 5,www.arquitectostecnologicosdecanarias.com,,922031848.0,922031849.0,-16.30391884,28.45532994,2016-05-09T12:45:15.374000,2016-11-09T09:37:12.779000
servicios profesionales limpieza,Arsenio Guzman Control de Plagas,CL,Calle,La Vera,108,38380,38051,La Victoria,,,,922581377.0,,-16.46601406,28.42382131,2016-05-09T12:45:15.374000,2017-07-05T07:59:29.597000
peluqueria estetica,Arte & Estilo Peluqueros,CR,Carretera,General TF 28 Sur,81,38626,38006,Arona,Valle San Lorenzo,,oasisstilistas@hotmail.com,922767467.0,0.0,-16.65650022,28.09085655,2016-05-09T12:45:15.374000,2015-08-04T12:31:10.347000
estudio arquitectura ingenieria,Arthectonica,PZ,"Plaza, plazoleta",Duque,0,38660,38001,Adeje,Fañabe CC Plaza del Duque Lc KF1,www.arthectonica.com,ventas@arthectonica.com,608495131.0,,-16.7395789,28.0908822,2017-06-22T10:46:50.841000,2017-06-22T12:47:49.202000
peluqueria estetica,Arual Fh & Belvi,CL,Calle,Doctor Miguel Lopez Gonzalez,1,38003,38038,Santa Cruz de Tenerife,Esq Cl Carmen Monteverde,,,0.0,0.0,-16.253724,28.466217,2016-05-09T12:45:15.374000,2017-10-31T07:53:38.892000
administracion inmobiliaria,As de Casas Inmobiliaria,AV,Avenida,Los Playeros,18,38650,38006,Arona,Los Cristianos,www.asdecasas.com,asdecasas@hotmail.com,922790247.0,922790247.0,-16.71642526,28.05250192,2016-05-09T12:45:15.374000,2015-08-04T12:41:33.715000
asesoria consultoria gestoria,Asefor Realejos,Av,Avenida,Canarias,22,38410,38031,Los Realejos,Realejo Alto,,info@aseforrealejos.com,922353374.0,,-16.58425749,28.3822647,2016-05-09T12:45:15.374000,2023-10-18T14:04:54.665000
asesoria consultoria gestoria,Asenor Fislanconta,CR,Carretera,General TF 217 Norte,41,38380,38051,La Victoria,,,,922582279.0,,-16.46552,28.43629299,2016-05-09T12:45:15.374000,2015-08-04T13:35:09.001000
aseguradora,Asepeyo,AV,Avenida,La Salle,19,38005,38038,Santa Cruz de Tenerife,,www.asepeyo.es,,922202888.0,922231312.0,-16.25675439,28.46081292,2016-05-09T12:45:15.374000,2016-06-21T09:07:15.872000
aseguradora,Asepeyo,AV,Avenida,La Salle,28,38005,38038,Santa Cruz de Tenerife,,www.asepeyo.es,,922202888.0,922231312.0,-16.25701685,28.46084492,2016-05-09T12:45:15.374000,2016-06-21T09:07:15.872000
asesoria consultoria gestoria,Asescon,AV,Avenida,Santa Cruz,47,38611,38017,Granadilla de Abona,San Isidro,www.asescon.es,asescon@asescon.es,658797003.0,922390284.0,-16.56005787,28.08157123,2017-04-28T09:29:25.447000,2017-04-28T09:29:25.447000
asesoria consultoria gestoria,Asescon Gestion Integral,AV,Avenida,Santa Cruz,131,38611,38017,Granadilla de Abona,San Isidro,www.asescon.es,info@asesconges.com,922393558.0,922394687.0,-16.55730871,28.07549813,2016-05-09T12:45:15.374000,2016-06-13T09:49:11.927000
asesoria consultoria gestoria,Asescon Gestion Integral,CL,Calle,Isla de Lanzarote,41,38611,38017,Granadilla de Abona,San Isidro,,,922392799.0,922392766.0,-16.555561,28.07457699,2016-05-09T12:45:15.374000,2016-06-21T09:16:27.276000
asesoria consultoria gestoria,Asescon Gestion Integral,CL,Calle,Jose Miguel Galvan Bello,17,38631,38006,Arona,Las Galletas,www.asescon.es,info@asesconges.com,922731259.0,922392291.0,-16.6550514,28.00697604,2016-05-09T12:45:15.374000,2016-06-21T09:16:27.276000
asesoria consultoria gestoria,Asesores Financieros S C La Laguna,CL,Calle,Perez Diaz,21,38380,38051,La Victoria,Ed Viña Vieja Lc 12,,,922313133.0,,-16.46769369,28.43524328,2016-05-09T12:45:15.374000,2015-11-25T10:51:33.963000
asesoria consultoria gestoria,Asesoria,CL,Calle,Franco Cupone,4,38109,38032,El Rosario,Puerto Deportivo Radazul Bajo,,,,,-16.321293,28.40126399,2016-05-09T12:45:15.374000,2017-06-21T10:50:43.160000
asesoria consultoria gestoria,Asesoria,AV,Avenida,Venezuela,53,38500,38020,Güimar,,,,922511443.0,,-16.411064,28.32174699,2016-05-09T12:45:15.374000,2015-08-04T10:57:05.185000
asesoria consultoria gestoria,Asesoria Acentejo,CL,Calle,Perez Diaz,21,38380,38051,La Victoria,Ed Viña Vieja Lc 6,,feblesacentejo@hotmail.com,922580985.0,,-16.467958,28.43513999,2016-05-09T12:45:15.374000,2015-11-24T14:56:13.543000
asesoria consultoria gestoria,Asesoria Aregume,CL,Calle,Calvario,11,38470,38042,Los Silos,,,,922840445.0,,-16.819403,28.36623799,2016-05-09T12:45:15.374000,2017-07-17T13:56:30.716000
asesoria consultoria gestoria,Asesoria Asecondre,Cl,Calle,El Toscal,39,38417,38031,Los Realejos,El Toscal Esq Cl Los Roques,www.asercome.com,Info@asercome.com,922364179.0,,-16.57403063,28.40075599,2016-05-09T12:45:15.374000,2023-10-18T14:04:54.665000
asesoria consultoria gestoria,Asesoria Ceher Progresum,CR,Carretera,Provincial TF 217,38,38390,38039,Santa Úrsula,Pl 2 Of 3,,ivandueza@ivandueza.es,922302525.0,,-16.49529857,28.42521109,,2018-04-10T14:25:43.419000
asesoria consultoria gestoria,Asesoria Contable fiscal y Laboral,CL,Calle,Charcay,70,38595,38017,Granadilla de Abona,Charco del Pino,,,922770989.0,922770989.0,-16.59210141,28.10838437,2016-05-09T12:45:15.374000,2015-08-05T07:32:57.630000
asesoria consultoria gestoria,Asesoria CH,Cm,Camino,La Montaña,4,38480,38010,Buenavista del Norte,,www.ch-asesores.com,administracion@chasesores.com,922707087.0,,-16.85015147,28.37280866,2023-10-18T12:08:17.876000,2023-10-18T12:08:17.876000
asesoria consultoria gestoria,Asesoria Chimaque,CR,Carretera,Provincial TF 217,59,38390,38039,Santa Úrsula,Ed Aurora Lc 06,www.chimaqueasesores.es,info@chimaqueasesores.es,922302577.0,,-16.49623883,28.42453329,2016-05-09T12:45:15.374000,2018-04-11T14:18:41.754000
asesoria consultoria gestoria,Asesoria Dacil Aparicio Garcia,CL,Calle,Santiago Beyro,24,38007,38038,Santa Cruz de Tenerife,Cruz del Señor,,asesoriatenerife@gmail.com,922029494.0,922029497.0,-16.27202557,28.46645345,2016-05-09T12:45:15.374000,2017-07-06T09:26:35.381000
asesoria consultoria gestoria,Asesoria De la Guardia,AV,Avenida,San Miguel de Chimisay,11,38108,38023,La Laguna,,,gerardo@delaguardia.es,,,-16.29704,28.45009499,2016-05-09T12:45:15.374000,2016-04-29T13:38:14.064000
asesoria consultoria gestoria,Asesoria De La Guardia,AV,Avenida,Los Majuelos,56,38107,38038,Santa Cruz de Tenerife,La Gallega,,,,,-16.31916345,28.43761395,2016-05-12T08:45:53.494000,2016-05-12T08:45:53.494000
asesoria consultoria gestoria,Asesoria e Inmobiliaria Ceferina Henriquez,CL,Calle,Doctoral Gonzalez Marrero,4,38550,38004,Arafo,,,ceferina_31@hotmail.com,627007073.0,,-16.41843484,28.33733156,2019-04-09T13:11:40.443000,2022-04-28T14:01:26.967000
asesoria consultoria gestoria,Asesoria Ebro,CL,Calle,Herrador,0,38683,38040,Santiago del Teide,Puerto de Santiago,,,922860203.0,922860107.0,-16.84030352,28.23917645,2016-05-09T12:45:15.374000,2016-11-09T09:37:12.779000
asesoria consultoria gestoria,Asesoria El Rosario,CL,Calle,El Calvario,36,38290,38032,El Rosario,La Esperanza,,,,,-16.365515,28.45322599,2016-05-09T12:45:15.374000,2018-03-23T14:15:22.487000
asesoria consultoria gestoria,Asesoria Fernandez Perdomo,AV,Avenida,San Miguel de Chimisay,2,38108,38023,La Laguna,Taco,,gestferperdomo@gestores.net,922614155.0,,-16.29667869,28.44957342,2016-05-09T12:45:15.374000,2016-11-15T10:12:48.908000
asesoria consultoria gestoria,Asesoria Fiscal Fernando Grassa,AV,Avenida,Bulevar Chajofe,3,38650,38006,Arona,Los Cristianos Ed Eden Lc 208,,fernando@fgrassa.com,922751344.0,922753067.0,-16.71329856,28.05485931,2016-05-09T12:45:15.374000,2017-11-16T08:05:09.206000
asesoria consultoria gestoria,Asesoria Fuentes Perez,AV,Avenida,Los Majuelos,4,38107,38038,Santa Cruz de Tenerife,El Sobradillo,,,922620799.0,922623469.0,-16.30966485,28.4451757,2016-05-09T12:45:15.374000,2016-05-12T09:26:07.417000
asesoria consultoria gestoria,Asesoria Garcia,Cl,Calle,Toscal,29,38417,38031,Los Realejos,,,,922362589.0,,-16.57450026,28.40028708,2023-10-18T12:08:17.876000,2023-10-18T12:08:17.876000
asesoria consultoria gestoria,Asesoria Gerardo,AV,Avenida,San Miguel de Chimisay,13,38108,38023,La Laguna,,,gerardo@delaguardia.es,922620713.0,,-16.29704791,28.45016281,2016-05-09T12:45:15.374000,2016-04-29T13:38:14.064000
asesoria consultoria gestoria,Asesoria Gestoria Quintero,CR,Carretera,General TF 152 Norte,42,38360,38041,El Sauzal,,www.quinteroasesores.es,info@quinteroasesores.es,922560419.0,922570276.0,-16.42028,28.47438199,2016-05-09T12:45:15.374000,2015-08-04T13:39:35.904000
asesoria consultoria gestoria,Asesoria Grupo Ate,CR,Carretera,General TF 28 Sur,3,38107,38038,Santa Cruz de Tenerife,Taco CC Concorde,,,,,-16.299967,28.44469699,2016-05-09T12:45:15.374000,2018-05-29T10:30:57.660000
asesoria consultoria gestoria,Asesoria Grupo Norte 1970,CR,Carretera,Provincial TF 217,135,38390,38039,Santa Úrsula,,,info@asesoriagruponorte.com,619920377.0,922074710.0,-16.50157021,28.42009366,2016-05-09T12:45:15,2018-04-10T14:28:43.352000
asesoria consultoria gestoria,Asesoria Herrera,CL,Calle,Santa Cruz de La Palma,109,38632,38006,Arona,El Fraile,,asesoherrera@gmail.com,922752742.0,922754469.0,-16.6711265,28.01205233,2016-05-09T12:45:15.374000,2016-09-29T08:53:25.783000
asesoria consultoria gestoria,Asesoria Illada,CL,Calle,Esquivel,7,38400,38028,Puerto de la Cruz,,,,922385513.0,,-16.548018,28.41635699,2016-05-09T12:45:15.374000,2022-04-22T13:23:10.741000
asesoria consultoria gestoria,Asesoria Inmobiliaria,AV,Avenida,Buenos Aires,98,38005,38038,Santa Cruz de Tenerife,,,concorde@grupoate.es,670574816.0,,-16.25554683,28.46082407,2016-05-09T12:45:15.374000,2016-06-23T10:07:24.246000
asesoria consultoria gestoria,Asesoria Io Laboro,Pz,"Plaza, plazoleta",Mencey Bencomo,2,38410,38031,Los Realejos,Edif Mayorazgo Pl 1 Loc 3 4,io-laboro-asesoria.negocio.site,,615056272.0,,-16.58389587,28.38836404,2023-10-18T12:08:17.876000,2023-10-18T12:08:17.876000
asesoria consultoria gestoria,Asesoría J.I. Asesores,AV,Avenida,De la Constitución,15,36680,38019,Guía de Isora,,,jiasesores13@gmail.com,660697414.0,,-16.78253978,28.21586021,2019-04-12T16:38:45.443000,2019-04-12T16:38:45.443000
asesoria consultoria gestoria,Asesoria Juan A Marrero Gonzalez,AV,Avenida,Los Abrigos,31,38618,38017,Granadilla de Abona,Los Abrigos,,,922170434.0,,-16.591184,28.02978729,2016-05-09T12:45:15.374000,2015-08-04T12:00:30.527000
asesoria consultoria gestoria,Asesoria Juridica Fiscal,CL,Calle,Ibarra,13,38631,38006,Arona,Las Galletas,,,922730433.0,922730769.0,-16.65684952,28.00782081,2016-05-09T12:45:15.374000,2015-08-04T12:36:55.984000
asesoria consultoria gestoria,Asesoria Juridica Gabino Ramos RB,AV,Avenida,Maritima,31,38683,38040,Santiago del Teide,Puerto de Santiago CC Seguro de Sol,www.asesoriagabinoramos.com,asesoria@asesoriagabinoramos.com,922860851.0,922860106.0,-16.84026209,28.23045028,2016-05-09T12:45:15.374000,2016-07-29T12:27:28.768000
asesoria consultoria gestoria,Asesoria La Union,Cl,Calle,San Agustin,43,38410,38031,Los Realejos,San Agustin,www.asesorialaunion.com,info@asesorialaunion.com,922346058.0,922346194.0,-16.5856892,28.38714716,2016-05-09T12:45:15.374000,2023-10-18T14:04:54.665000
asesoria consultoria gestoria,Asesoria Laboral,CL,Calle,Pedro Gonzalez Gomez,3,38600,38017,Granadilla de Abona,,,,,,-16.57749,28.12069349,2016-05-09T12:45:15.374000,2015-08-04T11:56:42.718000
asesoria consultoria gestoria,Asesoria Laboral Cristobal Diaz,CL,Calle,Los Pobres,93,38280,38046,Tegueste,,,info@asesoriategueste.com,922543916.0,922543916.0,-16.345173,28.52361999,2016-05-09T12:45:15.374000,2016-07-12T07:24:22.246000
asesoria consultoria gestoria,Asesoria Laboral Fiscal Suarez,CL,Calle,Tosca de la Iglesia,5,38390,38039,Santa Úrsula,,,info@asesoriasuarez.com,922300065.0,,-16.4909793,28.42490246,2016-05-09T12:45:15,2018-04-10T14:28:43.352000
asesoria consultoria gestoria,Asesoria Laboral Gerardo,CL,Calle,La Marina,37,38001,38038,Santa Cruz de Tenerife,,www.gerardoasesores.net,,922286460.0,,-16.24794029,28.47000082,2016-08-04T10:03:43.480000,2016-08-04T10:03:43.480000
asesoria consultoria gestoria,Asesoria Laboral Gonmat,AV,Avenida,Asuncion,30,38007,38038,Santa Cruz de Tenerife,,www.gonmat-asesores.com,gonmat@telefonica.net,922228405.0,922201759.0,-16.26236021,28.46582269,2016-05-09T12:45:15.374000,2016-06-23T10:07:24.246000
asesoria consultoria gestoria,Asesoria Laboral Jesus Manuel Cruz Perez,AV,Avenida,Bulevar Chajofe,3,38650,38006,Arona,Los Cristianos Ed Eden Lc 206,,jesus@asesoriajesuscruz.com,922793021.0,922750134.0,-16.71336842,28.05492752,2016-05-09T12:45:15.374000,2017-11-16T08:05:09.206000
asesoria consultoria gestoria,Asesoria Laboral Tejera Asociados,CL,Calle,Darias y Padron,1,38003,38038,Santa Cruz de Tenerife,CC Nuestra Señora de Africa Lc 36,,,,,-16.251966,28.46232799,2016-05-09T12:45:15.374000,2018-01-31T12:11:37.774000
asesoria consultoria gestoria,Asesoria Laboral Tensurcanarias,AV,Avenida,Bulevar Chajofe,3,38650,38006,Arona,Los Cristianos Ed Eden,,altesur@telefonica.net,922793301.0,0.0,-16.71332166,28.05479187,2016-05-09T12:45:15.374000,2017-11-16T08:05:09.206000
asesoria consultoria gestoria,Asesoría Laboral y Contable,CL,Calle,La Entrada,8,36680,38019,Guía de Isora,,www.asesorialaboraljaed.com,josealexis.estevez@gmail.com,922850226.0,,-16.78142986,28.21169205,2019-04-12T16:38:45.443000,2019-04-12T16:38:45.443000
asesoria consultoria gestoria,Asesoria Los Realejos,Cl,Calle,Taoro,6,38410,38031,Los Realejos,Bajo Derecha Edif Elena,www.asesoriarealejos.com,info@asesoriarealejos.com,922343654.0,,-16.5826314,28.38175357,2023-10-18T12:08:17.876000,2023-10-18T12:08:17.876000
asesoria consultoria gestoria,Asesoria Luis y Rodriguez,Cl,Calle,Presbitero Domingo Hernandez Gonzalez,52,38440,38018,La Guancha,La Guancha,www.aslr.es,aslr@aslr.es,922130251.0,,-16.65283226,28.37702097,2023-10-18T12:08:17.876000,2023-10-18T12:08:17.876000
asesoria consultoria gestoria,Asesoria Maxforte,AV,Avenida,Santa Cruz,145,38611,38017,Granadilla de Abona,San Isidro Lc 2,,,922392649.0,,-16.557036,28.07451299,2016-05-09T12:45:15.374000,2016-06-13T09:49:11.927000
asesoria consultoria gestoria,Asesoria MF Marcos Fariña,AV,Avenida,Los Majuelos,73,38107,38038,Santa Cruz de Tenerife,La Gallega,,marcosafa@asesoriamf.com,922537667.0,822067927.0,-16.31982746,28.43440035,2016-05-09T12:45:15.374000,2016-05-12T08:35:57.590000
asesoria consultoria gestoria,Asesoría Morín S.L,AV,Avenida,Emigrante,16,38687,38019,Guía de Isora,,,esanchez@asesoriamorin.es,922866839.0,922866842.0,-16.81738989,28.18014759,2019-04-12T16:38:45.443000,2019-04-12T16:38:45.443000
asesoria consultoria gestoria,Asesoria Norte,AV,Avenida,Las Palmeras,27,38360,38041,El Sauzal,,,asesorianorte@hotmail.es,922562539.0,,-16.43267222,28.48074999,2016-05-09T12:45:15.374000,2016-03-09T10:29:15.652000
asesoria consultoria gestoria,Asesoria Padilla y Fernandez,CL,Calle,Lope de Vega,32,38005,38038,Santa Cruz de Tenerife,,www.padillaasesores.es,info@padillayfernandez.es,922203141.0,,-16.258961,28.46276099,2016-05-09T12:45:15.374000,2015-08-04T10:26:16.678000
asesoria consultoria gestoria,Asesoria Playasur,CL,Calle,Isla de la Graciosa,1,38687,38019,Guía de Isora,Playa San Juan,,,922138317.0,,-16.815599,28.18181941,2016-05-09T12:45:15.374000,2016-08-12T13:58:47.338000
asesoria consultoria gestoria,Asesoria Reyes,CL,Calle,Retama del Teide,1,38320,38023,La Laguna,La Cuesta,,,922646201.0,922646257.0,-16.29193035,28.46945943,2016-05-09T12:45:15.374000,2015-08-04T10:33:10.329000
asesoria consultoria gestoria,Asesoria Siverio,CL,Calle,El Puente,8,38410,38031,Los Realejos,San Agustin,,,652953853.0,922355610.0,-16.585293,28.387802,2016-05-09T12:45:15.374000,2023-10-18T14:41:54.296000
asesoria consultoria gestoria,Asesoria Socas,Av,Avenida,8 de Agosto,73,38441,38018,La Guancha,Santo Domingo,,socasasesoria@gmail.com,922360505.0,,-16.67318754,28.3899909,2016-12-12T14:30:38.336000,2023-10-18T14:04:54.665000
asesoria consultoria gestoria,Asesoria Tagoror,Cl,Calle,Doctor Antonio Gonzalez,22,38410,38031,Los Realejos,Realejo Alto,,,922342845.0,922342806.0,-16.58471897,28.37897217,2016-05-09T12:45:15.374000,2023-10-18T14:04:54.665000
asesoria consultoria gestoria,Asesoria Violan,Av,Avenida,Canarias,4,38410,38031,Los Realejos,Realejo Alto,www.violan.es,jorge@violan.es,922341041.0,,-16.58405577,28.38120141,2023-10-18T12:08:17.876000,2023-10-18T12:08:17.876000
asesoria consultoria gestoria,Asesoria y Gestion San Juan,AV,Avenida,El Emigrante,16,38687,38019,Guía de Isora,Playa San Juan,,,922866839.0,,-16.81739659,28.18016911,2016-05-09T12:45:15.374000,2019-03-22T10:14:18.455000
asesoria consultoria gestoria,Aset Asesoria,Cl,Calle,Doctor Antonio Gonzalez,40,38410,38031,Los Realejos,Realejo Alto,,info@asesoresdetenerife.net,922354484.0,922346144.0,-16.58480949,28.3780288,2016-05-09T12:45:15.374000,2023-10-18T14:04:54.665000
agencia aduanas mercancias transporte,ASM Transportes,CL,Calle,Pedro de Mendoza,20,38010,38038,Santa Cruz de Tenerife,,www.asmred.com,asm.384@asmred.com,922165265.0,922821731.0,-16.28231353,28.45230404,2016-05-09T12:45:15.374000,2016-06-23T10:07:24.246000
asesoria consultoria gestoria,Asolafis Asesoria,CR,Carretera,General TF 28 Sur,13,38589,38005,Arico,Arico Viejo,,,922768575.0,,-16.48044742,28.18310494,2016-05-09T12:45:15.374000,2015-08-04T11:52:15.690000
agencia aduanas mercancias transporte,AST Transitarios,CL,Calle,Villalba Hervas,9,38002,38038,Santa Cruz de Tenerife,Ed Camacho Pl 5 Of 5,,trafico@asttransitarios.com,922299426.0,922299925.0,-16.24918606,28.46765105,2016-05-09T12:45:15,2018-01-17T09:31:06
administracion inmobiliaria,Astliz Estate Agent,AV,Avenida,Quinto Centenario,46,38683,38040,Santiago del Teide,Puerto de Santiago local 2,www.astliz.com,,922687000.0,,-16.84172636,28.23888181,2016-05-09T12:45:15,2016-06-21T08:59:19
alquiler vehiculos,Astliz Rent a Car,AV,Avenida,Quinto Centenario,46,38683,38040,Santiago del Teide,Puerto de Santiago local 2,www.astliz.com,,922687000.0,,-16.84173369,28.23885599,2016-05-09T12:45:15,2016-10-28T09:35:39.252000
funeraria,Ataudes de Canarias,CL,Calle,Azucena,8,38111,38038,Santa Cruz de Tenerife,Pg El Pilar,,jose_gome@hotmail.com,922624422.0,922624422.0,-16.31379501,28.42972726,2016-05-09T12:45:15.374000,2016-06-14T09:52:08.367000
asesoria consultoria gestoria,ATC Arco Asesores,CL,Calle,Santiago Cuadrado,11,38006,38038,Santa Cruz de Tenerife,,,,922245468.0,,-16.26229989,28.4692627,2016-05-09T12:45:15.374000,2016-06-23T10:14:39.701000
peluqueria estetica,Athenea Centro Laser,AV,Avenida,Angel Guimera,22,38003,38038,Santa Cruz de Tenerife,,www.atheneatenerife.com,,822105169.0,,-16.25244189,28.46660354,2016-05-09T12:45:15.374000,2022-04-22T13:23:10.741000
agencia aduanas mercancias transporte,Atlantic Canarias,CL,Calle,El Gofio,3,38107,38038,Santa Cruz de Tenerife,Pg El Molino,www.atlantic.canarias.com,atlantictfe@atlantic-canarias.com,922622560.0,922623481.0,-16.31575205,28.42258413,2016-05-09T12:45:15.374000,2018-12-12T14:23:52.441000
agencia aduanas mercancias transporte,Atlantic Canarias,CL,Calle,Anatolio De Fuentes Garcia,0,38009,38038,Santa Cruz de Tenerife,P I Costa Sur Buenos Aires,www.atlantic-canarias.com,atlantictfe@atlantic-canarias.com,922622560.0,922623481.0,-16.27349649,28.4459778,2017-02-15T11:40:07.893000,2017-03-10T09:05:18.142000
servicios otro tipo,Atlantic Distribution,CR,Carretera,General TF 28 Sur,75,38107,38038,Santa Cruz de Tenerife,Pg El Molino,,comercial@atlanticdistribution.es,922826105.0,,-16.31799604,28.42354107,2016-05-09T12:45:15.374000,2016-06-23T10:14:39.701000
agencia aduanas mercancias transporte,Atlantica Handling,CR,Carretera,General TF 152 Norte,0,38206,38023,La Laguna,Pg Los Rodeos,,,922568000.0,922638442.0,-16.34817886,28.49018346,2016-05-09T12:45:15.374000,2016-11-09T09:37:12.779000
agencia aduanas mercancias transporte,Atlantica Handling,CR,Carretera,General TF 152 Norte,0,38206,38023,La Laguna,Pg Los Rodeos,,,922568000.0,922638442.0,-16.34820387,28.49033174,2016-05-09T12:45:15.374000,2016-11-09T09:37:12.779000
agencia aduanas mercancias transporte,Atlantis Traders,CL,Calle,Subida Al Mayorazco,4,38110,38038,Santa Cruz de Tenerife,P I El Mayorazgo,www.atlanticrders.es,,922209292.0,922209296.0,-16.28202137,28.44386932,2017-02-15T11:40:07.893000,2017-03-29T07:50:43.137000
alquiler vehiculos,Atlas Rent A Car,AV,Avenida,Adeje 300,10,38678,38001,Adeje,Py Paraiso CC Paraiso Lc 11,,,922741682.0,,-16.77572906,28.12156871,2016-05-09T13:06:04,2017-08-03T10:57:42.117000
alquiler vehiculos,Atlas Rent A Car,CL,Calle,La Sirena,15,38683,38040,Santiago del Teide,Puerto de Santiago Ht Los Dragos,www.atlascar.es,,682597999.0,922861001.0,-16.84178148,28.23568078,2016-05-09T12:45:15,2016-10-28T09:24:14.745000
alquiler vehiculos,Atlas Rent A Car,CL,Calle,Jose Gonzalez Gonzalez,5,38683,38040,Santiago del Teide,Puerto de Santiago Ht Lagos de Cesar Lc 01,www.atlascar.es,,922868508.0,,-16.84045976,28.23417896,2016-10-28T09:16:05.674000,2016-10-28T09:16:05.674000
alquiler vehiculos,Atlas Rent A Car,CL,Calle,Galicia,12,38660,38001,Adeje,Torviscas Alto CC Cosmos Lc 03B,www.atlascar.es,,922738406.0,,-16.7254466,28.08733691,2016-10-28T09:17:36.282000,2016-10-28T09:17:36.282000
alquiler vehiculos,Atlas Rent A Car,AV,Avenida,Quinto Centenario,7,38660,38001,Adeje,Py Americas CC Paraiso del Sol Lc 07,www.atlascar.es,,922750470.0,,-16.72890468,28.06780336,2016-10-28T09:20:33.436000,2016-10-28T09:20:33.436000
servicios seguridad,Atogo Seguridad,CL,Calle,La Malva,23,38611,38017,Granadilla de Abona,Atogo,,,922392032.0,,-16.586254,28.06094979,2016-05-09T12:45:15.374000,2015-08-04T11:58:50.747000
asesoria consultoria gestoria,Atos Consulting Canarias,CL,Calle,Subida Al Mayorazco,24,38110,38038,Santa Cruz de Tenerife,P I El Mayorazgo B Edificio Arca,www.es.atos.net,,922533862.0,922277572.0,-16.28635053,28.4450751,2017-02-15T11:40:07.893000,2017-02-16T13:51:26.067000
asesoria consultoria gestoria,Atos Consulting Canarias,CL,Calle,Subida Al Mayorazco,24,38110,38038,Santa Cruz de Tenerife,P I El Mayorazgo B Edificio Arca,www.es.atos.net,,922533862.0,922277572.0,-16.28609691,28.44528536,2017-02-15T11:40:07.893000,2017-02-16T13:51:26.067000
servicios otro tipo,AtresMedia,CL,Calle,Mendez Nuñez,56,38002,38038,Santa Cruz de Tenerife,Ed Casas Amarillas,www.atresmediapublicidad.com,,922236510.0,,-16.25283197,28.47134036,2022-04-22T12:09:52.592000,2022-04-22T12:09:52.592000
servicios audiovisuales,Audio Video Pro Canarias,CL,Calle,Fernando Beautell,25,38009,38038,Santa Cruz de Tenerife,Z I Chamberi Bajo Derecha,www.audioprocanrias.com,info@audioprocanarias.com,922212583.0,922222709.0,-16.27681406,28.44842724,2017-02-15T11:40:07.893000,2017-02-16T13:51:26.067000
servicios otro tipo,Aura,CL,Calle,Candilas,27,38202,38023,La Laguna,,,,922315198.0,,-16.321267,28.48899399,2016-05-09T12:45:15.374000,2015-08-04T13:58:49.036000
autoescuela,Autoescuela 110,CL,Calle,Elias Ramos Gonzalez,1,38001,38038,Santa Cruz de Tenerife,,,,922275303.0,0.0,-16.24408214,28.47864339,2016-05-09T12:45:15.374000,2016-05-23T07:38:57.726000
autoescuela,Autoescuela 22,CL,Calle,Castillo,37,38003,38038,Santa Cruz de Tenerife,Entresuelo B,www.autoescuela22.com,info@autoescuela22.com,922243211.0,922243211.0,-16.25155197,28.46710938,2016-05-09T12:45:15.374000,2022-04-22T13:23:10.741000
autoescuela,Autoescuela ABC,AV,Avenida,Santa Berta,11,38108,38023,La Laguna,Ed La Libertad Lc 1B,www.50test.com.abc.html,abcconductores@yahoo.es,922310950.0,922310950.0,-16.29763841,28.45532604,2016-05-09T12:45:15,2016-11-09T12:59:33.529000
autoescuela,Autoescuela Alcala,AV,Avenida,Reina Sofia,10,38687,38019,Guía de Isora,Playa de San Juan,,autoescuelaalcala@hotmail.com,922866408.0,,-16.81623814,28.18298669,2016-05-09T12:45:15.374000,2019-04-12T11:56:11.551000
autoescuela,Autoescuela Alcala,AV,Avenida,Los Pescadores,63,38686,38019,Guía de Isora,Alcala Lc 2,,,922866257.0,,-16.82960306,28.20362876,2016-05-09T12:45:15.374000,2017-06-08T09:19:04.880000
autoescuela,Autoescuela Ambar,CL,Calle,Herrador,14,38683,38040,Santiago del Teide,Puerto de Santiago,,,922861850.0,,-16.84068864,28.23846758,2016-05-09T12:45:15.374000,2016-06-21T09:18:13.554000
autoescuela,Autoescuela Añaza,AV,Avenida,San Martin de Porres,3,38627,38006,Arona,Cabo Blanco,www.autoescuelaanaza.es,,922720341.0,,-16.67127572,28.0740874,2016-05-09T12:45:15.374000,2015-08-04T12:32:00.097000
autoescuela,Autoescuela Atogo,CL,Calle,Sol del Sur,6,38631,38006,Arona,Las Galletas,,atogo1@hotmail.com,922785761.0,922785761.0,-16.65411071,28.00820214,2016-05-09T12:45:15.374000,2015-08-04T12:36:55.984000
autoescuela,Autoescuela Avanti,RB,Rambla,Los Menceyes,14,38509,38011,Candelaria,Rs Rambla,www.avantiformacion.com,info@avantiformacion.com,922517035.0,,-16.3655989,28.36677638,2016-05-09T12:45:15.374000,2015-08-04T10:53:32.454000
autoescuela,Autoescuela Avenida,Av,Avenida,Hipolito Sinforiano,17,38440,38018,La Guancha,La Guancha,,,922130015.0,,-16.6516541,28.37427342,2016-05-09T12:45:15.374000,2023-10-18T14:04:54.665000
autoescuela,Autoescuela Candelaria,CM,Camino,La Piterita,2,38205,38023,La Laguna,Valle Colino,,autoescuelacandelaria@gmail.com,922640605.0,922640605.0,-16.29828454,28.47559763,2016-05-09T12:45:15.374000,2015-08-04T14:00:57.411000
autoescuela,Autoescuela Carmelo,CL,Calle,Alcalde Mandillo Tejera,19,38007,38038,Santa Cruz de Tenerife,Los Gladiolos Ed Aries,,,,,-16.271715,28.46083099,2016-05-09T12:45:15.374000,2015-08-04T10:37:38.763000
autoescuela,Autoescuela Casanova,CL,Calle,Valois,25,38400,38028,Puerto de la Cruz,,,,922388788.0,,-16.54787343,28.41511702,2022-04-22T12:09:52.592000,2022-04-22T12:09:52.592000
autoescuela,Autoescuela Cruz Santa,CL,Calle,Real La Cruz Santa,60,38413,38031,Los Realejos,La Cruz Santa,,,922343506.0,922343506.0,-16.567,28.37825,2016-05-09T12:45:15.374000,2023-10-18T14:41:54.296000
autoescuela,Autoescuela Chinyero,AV,Avenida,Principes de España,30,38435,38044,El Tanque,,,,,,-16.779716,28.35653699,2016-05-09T12:45:15.374000,2015-08-04T12:58:55.904000
autoescuela,Autoescuela Damaris,CR,Carretera,General TF 152 Norte,26,38350,38043,Tacoronte,La Estacion,,,922572213.0,,-16.416393,28.47599857,2016-05-09T12:45:15.374000,2015-08-04T13:42:46.792000
autoescuela,Autoescuela Derrape,CL,Calle,El Calvario,10,38290,38032,El Rosario,La Esperanza,,,922548085.0,,-16.366341,28.45227099,2016-05-09T12:45:15.374000,2015-08-04T10:49:35.113000
autoescuela,Autoescuela Dulce,CL,Calle,Punta de Anaga,8,38111,38038,Santa Cruz de Tenerife,Los Alisios,,,,,-16.30795247,28.42978033,2016-05-09T12:45:15.374000,2015-08-04T10:47:03.881000
autoescuela,Autoescuela El Puertito,AV,Avenida,Cristobal Colon,12,38508,38020,Güimar,Puertito de Guimar,,,922528377.0,,-16.37417275,28.2959056,2016-05-09T12:45:15.374000,2015-08-04T10:57:05.185000
autoescuela,Autoescuela El Roque,CL,Calle,Martin de Andujar,7,38450,38015,Garachico,,www.autoescuelaislabaja.com,autoescuelaislabaja@hotmail.com,647955138.0,922133277.0,-16.7641369,28.37209644,2016-05-09T12:45:15.374000,2016-08-17T10:34:46.828000
autoescuela,Autoescuela El Tanque,AV,Avenida,Principes de España,59,38435,38044,El Tanque,,,,609446661.0,,-16.781153,28.35630999,2016-05-09T12:45:15.374000,2015-08-04T12:58:55.904000
autoescuela,Autoescuela El Valle,CL,Calle,Narciso Hernandez Cruz,2,38350,38043,Tacoronte,,es-es.facebook.com/autoescuelaelvalle,,922560752.0,,-16.4157895,28.47601903,2016-05-09T12:45:15.374000,2015-08-04T13:42:46.792000
autoescuela,Autoescuela ELE,Av,Avenida,Canarias,4,38410,38031,Los Realejos,Loc 5,www.tuautoescuela.net,eleautoescuela@hotmail.com,922092382.0,,-16.58408208,28.38125175,2023-10-18T12:08:17.876000,2023-10-18T12:08:17.876000
autoescuela,Autoescuela Elite,Av,Avenida,Canarias,20,38410,38031,Los Realejos,,www.autoescuelaelitecanarias.com,info@autoescuelaelitecanarias.com,922345051.0,,-16.58429581,28.38215332,2023-10-18T12:08:17.876000,2023-10-18T12:08:17.876000
autoescuela,Autoescuela En Marcha,CL,Calle,El Carmen,3,38280,38046,Tegueste,CC Palmeras Lc 6,,,922546744.0,,-16.33802457,28.52227388,2016-05-09T12:45:15.374000,2017-12-11T14:29:50.538000
autoescuela,Autoescuela En Red,CL,Calle,Darias y Padron,1,38003,38038,Santa Cruz de Tenerife,CC Nuestra Señora de Africa Lc 53c,,,629135005.0,,-16.251787,28.46227999,2016-05-09T12:45:15.374000,2018-01-31T10:21:12.819000
autoescuela,Autoescuela Europa,RB,Rambla,Santa Cruz,37,38006,38038,Santa Cruz de Tenerife,,www.50test.com,profesor@tuautoescuela.net,922274354.0,,-16.25940323,28.47018401,2016-05-09T12:45:15.374000,2016-06-21T09:18:13.554000
autoescuela,Autoescuela F Martin,CL,Calle,Prebendado Pacheco,18,38280,38046,Tegueste,,www.pjelvissport@motorcanario.com,,922543250.0,922543250.0,-16.337145,28.52156299,2016-05-09T12:45:15.374000,2016-05-24T10:38:34.214000
autoescuela,Autoescuela Fotingo,CL,Calle,Almirante Diaz Pimienta,10,38005,38038,Santa Cruz de Tenerife,Ed Niza,www.autoescuelafotingo.com,info@autoescuelafotingo.com,675576396.0,922212950.0,-16.26207985,28.46016603,2016-07-29T07:59:08,2016-07-29T08:04:13.046000
autoescuela,Autoescuela Fuentefria,CL,Calle,Guia de Isora,2,38008,38038,Santa Cruz de Tenerife,Salud Alto,www.grupovial.com,,922882148.0,922283103.0,-16.27463292,28.47011738,2016-05-09T12:45:15.374000,2018-01-17T11:33:29.111000
autoescuela,Autoescuela Fuentefria,CL,Calle,Isla de La Gomera,3,38006,38038,Santa Cruz de Tenerife,,,,922283103.0,,-16.26273337,28.46839704,2016-05-09T12:45:15.374000,2018-01-16T14:14:24.654000
autoescuela,Autoescuela Fuentefria Rambla,RB,Rambla,Santa Cruz,37,38006,38038,Santa Cruz de Tenerife,,,,922257681.0,,-16.259378,28.4701979,2016-05-09T12:45:15.374000,2018-01-17T14:26:22.775000
autoescuela,Autoescuela Gara,AV,Avenida,Principes de España,7,38010,38038,Santa Cruz de Tenerife,Ofra CC Yumbo local 06,www.autoescuelagara.com,autogara202@hoymail.com,922650058.0,,-16.28387324,28.4554268,2016-05-09T12:45:15.374000,2018-01-15T10:19:59.087000
autoescuela,Autoescuela Granadilla,AV,Avenida,Mencey de Abona,31,38600,38017,Granadilla de Abona,,autoescuelagranadilla.com,info@autoescuelagranadilla.com,922771991.0,,-16.57857872,28.11695058,2016-05-09T12:45:15.374000,2016-02-29T12:50:25.177000
autoescuela,Autoescuela Guanche,AV,Avenida,Venezuela,53,38008,38038,Santa Cruz de Tenerife,,www.autoescuelaguanche.com,,922214855.0,922214855.0,-16.27205457,28.4700281,2016-05-09T12:45:15.374000,2016-06-16T09:10:27.500000
autoescuela,Autoescuela Guaza,CR,Carretera,General TF 28 Sur,117,38626,38006,Arona,Valle San Lorenzo,,,0.0,0.0,-16.65894275,28.09111405,2016-05-09T12:45:15.374000,2015-08-04T12:31:10.347000
autoescuela,Autoescuela Guaza,CL,Calle,Fuerteventura,58,38632,38006,Arona,El Fraile,,,922732800.0,,-16.667408,28.01177588,2016-05-09T12:45:15.374000,2015-12-01T08:55:41.101000
autoescuela,Autoescuela Guía,CL,Calle,Villanueva,5,36680,38019,Guía de Isora,,www.autoescuelaguia.es,info@autoescuelaguia.es,922850251.0,,-16.77938557,28.21110869,2019-04-12T16:38:45.443000,2019-04-12T16:38:45.443000
autoescuela,Autoescuela Isla Baja,CL,Calle,Martin de Andujar,7,38450,38015,Garachico,,,,922136468.0,,-16.76424,28.37219799,2016-05-09T12:45:15.374000,2015-08-04T13:05:11.790000
autoescuela,Autoescuela Izaña,AV,Avenida,Bulevar Chajofe,3,38650,38006,Arona,Los Cristianos Ed Eden Lc 111,,autoescuelaiza?a@hotmail.com,922793523.0,922793523.0,-16.71346205,28.05464288,2016-05-09T12:45:15.374000,2017-11-16T08:05:09.206000
autoescuela,Autoescuela La Cuesta,AV,Avenida,Los Menceyes,389,38320,38023,La Laguna,La Cuesta,www.grupovial.com/escuela_lacuesta.htm,,922649703.0,922647065.0,-16.28590969,28.46801414,2016-05-09T12:45:15.374000,2015-08-04T10:33:10.329000
autoescuela,Autoescuela La Cuesta,AV,Avenida,Los Majuelos,32,38107,38038,Santa Cruz de Tenerife,El Sobradillo Ed Ada,,,922622947.0,,-16.31439838,28.44193131,2016-05-12T08:55:45.440000,2016-05-12T09:03:33.787000
autoescuela,Autoescuela La Gallega,CL,Calle,El Trailer,2,38107,38038,Santa Cruz de Tenerife,La Gallega,www.aelagallega.com,aelagallega@hotmail.com,922032747.0,,-16.31970773,28.43473727,2016-05-09T12:45:15.374000,2017-01-30T10:34:20.914000
autoescuela,Autoescuela La Gallega,AV,Avenida,Las Palmeras,12,38360,38041,El Sauzal,Lc 1,www.aelagallega.com,aelagallega_sauzal@hotmail.com,922563852.0,,-16.433109,28.48043599,2016-05-09T12:45:15.374000,2015-08-04T13:39:35.904000
autoescuela,Autoescuela La Gallega,AV,Avenida,Los Majuelos,73,38107,38038,Santa Cruz de Tenerife,La Gallega,,,,,-16.32001072,28.43377504,2016-05-12T10:56:40.696000,2016-05-12T10:56:40.696000
autoescuela,Autoescuela La Guagua,CL,Calle,Ibaute,11,38111,38038,Santa Cruz de Tenerife,Acoran Ur Brisamar,www.laguagua.org,info@laguagua.org,922685301.0,922686790.0,-16.30839067,28.41737623,2016-05-09T12:45:15.374000,2015-08-04T10:47:03.881000
autoescuela,Autoescuela La Guagua,CR,Carretera,General TF 64 Granadilla El Medano,0,38611,38017,Granadilla de Abona,San Isidro Cruce Au Sur TF 1 Km 56,www.laguagua.org,sanisidro@laguagua.org,922703721.0,922703721.0,-16.55216576,28.06867947,2016-05-09T12:45:15.374000,2016-11-09T09:37:12.779000
autoescuela,Autoescuela La Isla,Pz,"Plaza, plazoleta",Mencey Bencomo,,38410,38031,Los Realejos,Edif Monterrey Bajo Loc 3B,www.autoescuelalaisla.com,hola@autoescuelalaisla.com,922355634.0,,-16.5846561,28.38840682,2023-10-18T12:08:17.876000,2023-10-18T12:08:17.876000
autoescuela,Autoescuela La Laguna,CL,Calle,El Carmen,3,38280,38046,Tegueste,CC Palmeras,,,,,-16.338037,28.52223999,2016-05-09T12:45:15.374000,2017-12-11T14:29:50.538000
autoescuela,Autoescuela La Laguna,AV,Avenida,Sor Soledad Cobian,19,38300,38026,La Orotava,,,,,,-16.5200531,28.39182704,2016-05-09T12:45:15.374000,2017-06-14T09:49:45.641000
autoescuela,Autoescuela La Luz,CL,Calle,La Estrella,40,38470,38042,Los Silos,,,,922841590.0,,-16.81913097,28.36651139,2016-10-11T09:41:25.519000,2016-10-11T09:41:25.519000
autoescuela,Autoescuela La Orotava,CL,Calle,Calvario,5,38300,38026,La Orotava,,,,922333453.0,,-16.52275588,28.39164787,2016-05-09T12:45:15.374000,2018-03-20T10:44:54.401000
autoescuela,Autoescuela La Paz,CR,Carretera,General TF 217 Norte,54,38380,38051,La Victoria,,,,922580712.0,,-16.46678854,28.43636925,2016-05-09T12:45:15.374000,2015-08-04T13:35:09.001000
autoescuela,Autoescuela La Salle,CL,Calle,Pepita Serrador,8,38005,38038,Santa Cruz de Tenerife,Ed El Toboso,,,922226651.0,,-16.25959,28.46077299,2016-05-09T12:45:15.374000,2015-08-04T10:26:16.678000
autoescuela,Autoescuela La Victoria,CR,Carretera,España TF 217,21,38039,38039,Santa Úrsula,,,,922300215.0,922582255.0,-16.49012529,28.42561682,2016-05-09T12:45:15.374000,2018-04-10T14:28:43.352000
autoescuela,Autoescuela La Victoria,CL,Calle,Perez Diaz,37,38380,38051,La Victoria,,,,922582255.0,,-16.469284,28.43456599,2016-05-09T12:45:15.374000,2015-08-04T13:35:09.001000
autoescuela,Autoescuela Laguna,CL,Calle,La Union,8,38296,38023,La Laguna,La Hornera,,,,,-16.30651173,28.4650064,2017-10-30T11:39:27,2017-10-30T11:39:27
autoescuela,Autoescuela Laguna,CL,Calle,Los Guanches,5,38205,38023,La Laguna,Barrio Nuevo,,,0.0,,-16.31052567,28.47923148,2016-05-09T12:45:15.374000,2015-08-27T08:53:47.330000
autoescuela,Autoescuela Lazarte,CL,Calle,Republica Argentina,3,36680,38019,Guía de Isora,Guia de Isora,,formacion@autoescuelalazarte.com,922852455.0,633779026.0,-16.78102008,28.21118679,2016-05-09T12:45:15.374000,2019-04-12T11:56:20.113000
autoescuela,Autoescuela Marquez,CL,Calle,Barcelona,6,38204,38023,La Laguna,,www.facebook.com/pages/Autoescuela-Marquez,marquez.rafa@hotmail.es,628107172.0,922825641.0,-16.31503982,28.4856766,2016-05-09T12:45:15.374000,2018-01-15T12:35:30.275000
autoescuela,Autoescuela Marquez,CL,Calle,El Carmen,10,38280,38046,Tegueste,,,,,,-16.33785259,28.52248175,2016-05-09T12:45:15.374000,2016-05-24T08:46:33.476000
autoescuela,Autoescuela MJ,CL,Calle,Calvo Sotelo,30,38006,38038,Santa Cruz de Tenerife,,,,922270789.0,,-16.26175841,28.46896047,2016-05-09T12:45:15.374000,2016-06-21T09:18:13.554000
autoescuela,Autoescuela Montaña Roja,CL,Calle,Alemania,5,38612,38017,Granadilla de Abona,El Medano,,,,,-16.53991806,28.04543861,2016-05-09T12:45:15.374000,2015-08-04T11:59:37.153000
autoescuela,Autoescuela Monza,CL,Calle,Alfonso Garcia Ramos,18,38007,38038,Santa Cruz de Tenerife,Los Gladiolos,autoescuelamonza.blogspot.com.es,autoescuelamonza@hotmail.com,922227308.0,,-16.26992742,28.46016652,2016-05-09T12:45:15.374000,2015-08-04T10:37:38.763000
autoescuela,Autoescuela Novel,CR,Carretera,General TF 28 Sur,132,38626,38006,Arona,Valle San Lorenzo,,,0.0,0.0,-16.6582609,28.09165069,2016-05-09T12:45:15.374000,2015-08-04T12:31:10.347000
autoescuela,Autoescuela Olver,AV,Avenida,Modesto Hernandez Gonzalez,1,38639,38035,San Miguel,P I Las Chafiras,,,922703398.0,,-16.61131051,28.04896167,2017-02-15T11:40:07.893000,2017-02-16T13:51:26.067000
autoescuela,Autoescuela Orive,CL,Calle,Isla de Lobos,8,38611,38017,Granadilla de Abona,San Isidro,,,922390151.0,,-16.555978,28.07341999,2016-05-09T12:45:15.374000,2016-02-18T10:32:45.109000
autoescuela,Autoescuela Orive,AV,Avenida,Venezuela,118,38500,38020,Güimar,,,,,,-16.410635,28.32401699,2016-05-09T12:45:15.374000,2015-08-04T10:57:05.185000
autoescuela,Autoescuela Orive,AV,Avenida,San Sebastian,73,38005,38038,Santa Cruz de Tenerife,,,,922212630.0,,-16.25474514,28.46356379,2016-05-09T12:45:15.374000,2016-02-18T10:32:45.109000
autoescuela,Autoescuela Orotava,CR,Carretera,Provincial TF 217,18,38390,38039,Santa Úrsula,,,autoescuelalaorotava@gmail.com,922300485.0,,-16.49289737,28.42529015,2016-05-09T12:45:15,2018-04-10T14:28:43.352000
autoescuela,Autoescuela Parking,CR,Carretera,General TF 28 Sur,41,38107,38038,Santa Cruz de Tenerife,Barranco Grande,,,922617856.0,,-16.30564527,28.43764961,2016-05-09T12:45:15,2015-08-04T10:46:09
autoescuela,Autoescuela Paz,CR,Carretera,General TF 217 Norte,25,38380,38051,La Victoria,,,,922580712.0,,-16.464556,28.43659999,2016-05-09T12:45:15.374000,2015-08-04T13:35:09.001000
autoescuela,Autoescuela Paz,CR,Carretera,General TF 152 Norte,49,38350,38043,Tacoronte,La Estacion,www.autoescuelapaz.com,,922560514.0,,-16.41420037,28.47729041,2016-05-09T12:45:15.374000,2018-05-24T17:22:06.194000
autoescuela,Autoescuela Premier,CL,Calle,Decano Consular Jesus Ramos Gonzalez,9,38111,38038,Santa Cruz de Tenerife,Añaza Lc 4,,,,,-16.29783431,28.42429519,2016-05-17T09:47:46.790000,2016-05-17T09:47:46.790000
autoescuela,Autoescuela Ramal,CR,Carretera,General TF 342 La Orotava La Guancha,15,38428,38034,San Juan de la Rambla,,www.tuautoescuela.net/ramal.htm,aeramal@gmail.com,922350142.0,,-16.642393,28.37476899,2016-05-09T12:45:15.374000,2015-11-06T14:12:09.511000
autoescuela,Autoescuela Realejos,AV,Avenida,Los Remedios,15,38410,38031,Los Realejos,Realejo Alto,,,922342153.0,,-16.58429349,28.37997844,2016-05-09T12:45:15.374000,2023-10-18T14:41:54.296000
autoescuela,Autoescuela Salamanca,GL,Glorieta,Veintinueve de Mayo,7,38007,38038,Santa Cruz de Tenerife,,www.autoesuelasalamanca.es,,922237191.0,,-16.26846885,28.46585717,2016-05-09T12:45:15.374000,2016-06-16T09:10:27.500000
autoescuela,Autoescuela San Cristobal,Cl,Calle,San Francisco de Paula,43,38290,38023,La Laguna,,https://aesancristobal.com/,info@autoescuelaentenerife.com,922629227.0,,-16.33132909,28.45412244,2023-11-13T13:40:27.944000,2023-11-13T13:40:27.944000
autoescuela,Autoescuela San Miguel,CR,Carretera,General TF 28 Sur,54,38620,38035,San Miguel,,,sanmiguel@laautoescuela.net,922734085.0,,-16.61673808,28.09942199,2016-05-09T12:45:15.374000,2015-08-05T07:32:57.630000
autoescuela,Autoescuela Santa Ursula,CR,Carretera,Provincial TF 217,69,38390,38039,Santa Úrsula,Ed Princesa Lc 03,,autoescuelasantaursula@gmail.com,922300913.0,,-16.49719587,28.42329359,2016-11-09T10:15:27,2018-04-10T14:28:43.352000
autoescuela,Autoescuela Santos,AV,Avenida,Santa Cruz,18,38500,38020,Güimar,,,,,,-16.408596,28.31696899,2016-05-09T12:45:15.374000,2015-08-04T10:57:05.185000
autoescuela,Autoescuela Silos,CL,Calle,Calvario,11,38470,38042,Los Silos,,,,922840239.0,,-16.819529,28.36625099,2016-05-09T12:45:15,2016-10-11T09:25:56.468000
autoescuela,Autoescuela Sur,CL,Calle,La Cruz,13,38670,38001,Adeje,Ed Carmen,www.aesuradeje.,aesur@hotmail.com,922710760.0,,-16.73201392,28.12103793,2016-07-29T08:04:13.046000,2018-03-05T07:46:52.101000
autoescuela,Autoescuela Tagoro,CL,Calle,San Cristobal,23,38359,38041,El Sauzal,Ravelo,,aetagoro@hotmail.com,922584799.0,,-16.41755556,28.45915832,2016-05-09T12:45:15.374000,2016-06-23T10:14:39.701000
autoescuela,Autoescuela Teide,AV,Avenida,San Sebastian,78,38005,38038,Santa Cruz de Tenerife,,www.autoescuelateide.com,info@autoescuelateide.com,922224767.0,,-16.25398882,28.46374219,2016-05-09T12:45:15.374000,2016-06-21T10:11:59.857000
autoescuela,Autoescuela Teide,AV,Avenida,Los Menceyes,204,38320,38023,La Laguna,La Cuesta,,,,,-16.294478,28.46947799,2016-05-09T12:45:15.374000,2018-01-16T09:00:06.407000
autoescuela,Autoescuela Teide,AV,Avenida,Los Majuelos,2,38108,38023,La Laguna,,,laguna@autoescuelateide.com,,,-16.29593611,28.457824,2016-05-09T12:45:15.374000,2015-11-20T14:13:28.262000
autoescuela,Autoescuela Teide,CL,Calle,Marco Polo,10,38108,38023,La Laguna,Los Andenes,,,,,-16.30029431,28.44645535,2016-05-09T12:45:15.374000,2015-11-20T14:13:28.262000
autoescuela,Autoescuela Teide,AV,Avenida,Santa Cruz,58,38500,38020,Güimar,,,,,,-16.408016,28.31870299,2016-05-09T12:45:15.374000,2015-08-04T10:57:05.185000
autoescuela,Autoescuela Teide,CL,Calle,Perez Diaz,23,38380,38051,La Victoria,,www.autoescuelaruedas.es,info@autoescuelkaruedas.es,922581060.0,,-16.468369,28.43495399,2016-05-09T12:45:15.374000,2015-11-17T10:08:36.928000
autoescuela,Autoescuela Teide,CL,Calle,Almirante Diaz Pimienta,9,38005,38038,Santa Cruz de Tenerife,Ed Niza,,,,,-16.26213884,28.45981999,2016-05-09T12:45:15,2016-06-01T12:33:56.726000
autoescuela,Autoescuela Teide,CL,Calle,San Francisco de Borja,2,38108,38023,La Laguna,,www.autoescuelateide.com,info@autoescuelateide.com,922821075.0,,-16.30167414,28.45153524,2016-05-09T12:45:15.374000,2015-11-20T14:13:28.262000
autoescuela,Autoescuela Teide,CR,Carretera,General TF 263 San Miguel de Geneto,214,38296,38023,La Laguna,San Miguel de Geneto,,,,,-16.31726299,28.4554515,2016-05-09T12:45:15.374000,2018-02-14T14:21:22.681000
autoescuela,Autoescuela Tenerife,AV,Avenida,Islas Canarias,103,38007,38038,Santa Cruz de Tenerife,Barrio Cruz del Señor,,,922210008.0,,-16.270876,28.46440099,2016-05-09T12:45:15.374000,2018-01-17T11:51:41.246000
autoescuela,Autoescuela velox,CL,Calle,Eric Lionel Fox,1,38005,38038,Santa Cruz de Tenerife,,www.grupovelox.con,,922223053.0,,-16.26266989,28.45988075,2016-05-09T12:45:15.374000,2015-08-04T10:26:16.678000
autoescuela,Autoescuela Velox,AV,Avenida,Los Majuelos,4,38107,38038,Santa Cruz de Tenerife,El Sobradillo,www.grupovelox.com,atencionalcliente@grupovelox.com,922621139.0,,-16.30941599,28.44545111,2016-05-09T12:45:15.374000,2016-05-12T08:45:53.431000
autoescuela,Autoescuela Velox,CM,Camino,La Hornera,82,38205,38023,La Laguna,,,,,,-16.3078813,28.4715291,2016-05-09T12:45:15.374000,2015-08-03T12:55:43.062000
autoescuela,Autoescuela Velox,CL,Calle,Catedral,1,38204,38023,La Laguna,,,,,,-16.31445987,28.48437155,2016-05-09T12:45:15,2016-11-15T12:52:01.346000
autoescuela,Autoescuela Velox,AV,Avenida,Los Menceyes,186,38320,38023,La Laguna,Ed Elizabeth ,,,,,-16.295277,28.46964599,2016-05-09T12:45:15.374000,2016-10-21T09:52:14.949000
autoescuela,Autoescuela Velox,AV,Avenida,Principes de España,11,38010,38038,Santa Cruz de Tenerife,Ofra,www.grupovelox.com,atencionalcliente@grupovelox.com,922644904.0,,-16.28487515,28.45315669,2016-05-09T12:45:15.374000,2016-08-23T13:15:26.428000
autoescuela,Autoescuela Velox,CL,Calle,Lugo y Herrera,3,38320,38023,La Laguna,La Cuesta,,,0.0,,-16.28727605,28.46851612,2016-05-09T12:45:15.374000,2016-04-29T10:22:47.068000
autoescuela,Autoescuela Velox,CL,Calle,Nivaria,5,38108,38023,La Laguna,Taco,,informacion@grupovelox.com,,,-16.30022813,28.44615686,2016-05-09T12:45:15.374000,2015-11-12T08:47:28.324000
autoescuela,Autoescuela Velox CAP,AV,Avenida,Los Majuelos,4,38107,38038,Santa Cruz de Tenerife,El Sobradillo,,,627053636.0,,-16.30954551,28.44530881,2016-05-09T12:45:15.374000,2016-05-12T09:26:07.417000
autoescuela,Autoescuela Victoria,CR,Carretera,General TF 217 Norte,146,38370,38025,La Matanza,,,,922582255.0,,-16.45635761,28.45216755,2016-05-09T12:45:15.374000,2015-11-25T13:05:26.107000
autoescuela,Autoescuela Vip,AV,Avenida,Trinidad,78,38203,38023,La Laguna,,,,,,-16.317976,28.482195,2016-05-09T12:45:15.374000,2018-01-18T10:36:30.701000
servicios ocio entretenimiento,Automaticos Canarios,CL,Calle,Panama,11,38009,38038,Santa Cruz de Tenerife,P I Costa Sur Buenos Aires,www.automaticoscanarios.es,automaticoscanarios@grupoac.es,922236236.0,922235555.0,-16.26729619,28.45351817,2017-02-15T11:40:07.893000,2017-02-16T13:51:26.067000
servicios ocio entretenimiento,Automaticos Canarios,CL,Calle,Panama,11,38009,38038,Santa Cruz de Tenerife,P I Costa Sur Buenos Aires,www.automaticoscanarios.es,automaticoscanarios@grupoac.es,922236236.0,922235555.0,-16.26729619,28.45351817,2017-02-15T11:40:07.893000,2017-02-16T13:51:26.067000
servicios ocio entretenimiento,Automaticos Canarios,CL,Calle,Mercedes,0,38108,38023,La Laguna,P I Los Majuelos,www.automaticoscanarios.es,info@automaticoscanarios.com/automaticoscanarios@grupoac.es,922236236.0,,-16.29626727,28.45738706,2017-02-15T11:40:07.893000,2017-04-03T13:00:04.231000
servicios ocio entretenimiento,Automaticos Canarios,CL,Calle,Panama,11,38009,38038,Santa Cruz de Tenerife,P I Costa Sur Buenos Aires,www.automaticoscanarios.es,automaticoscanarios@grupoac.es,922236236.0,922235555.0,-16.26729619,28.45351817,2017-02-15T11:40:07.893000,2017-02-16T13:51:26.067000
alquiler vehiculos,Autos 3000,AV,Avenida,Blas Perez Gonzalez,11,38400,38028,Puerto de la Cruz,San Felipe,autos3000sl.com,autos3000sl@teide.net,922387160.0,922373507.0,-16.55498222,28.41078866,2016-11-25T13:15:00.775000,2016-11-28T07:55:45.371000
alquiler vehiculos,Autos 3000,CL,Calle,Aceviño,9,38400,38028,Puerto de la Cruz,Ur La Paz,autos3000sl.com,autos3000sl@teide.net,922381299.0,,-16.53827216,28.41504842,2016-11-25T13:05:18.825000,2016-11-25T13:15:00.759000
alquiler vehiculos,Autos Ada,CR,Carretera,Hoya Fria,0,38110,38038,Santa Cruz de Tenerife,P I El Mayorazgo,,,922274953.0,922242756.0,-16.28154857,28.44415421,2017-02-15T11:40:07.893000,2017-03-10T09:05:18.142000
alquiler vehiculos,Autos Carman Icod,AV,Avenida,Francisco Miranda,4,38430,38022,Icod de los Vinos,,,,922815305.0,,-16.719747,28.36888899,2016-05-09T12:45:15.374000,2015-08-04T13:09:51.115000
alquiler vehiculos,Autos Jocar,CM,Camino,San Lazaro,110,38206,38023,La Laguna,Los Rodeos,www.autosjocar.com,jocar@autosjocar.com,922255513.0,,-16.33838521,28.48893244,2016-07-29T10:29:14.747000,2016-07-29T10:30:07.089000
alquiler vehiculos,Autos Jocar,AV,Avenida,Guaza,10,38632,38006,Arona,Guaza,www.autosjocar.com,jocar@autosjocar.com,922169124.0,,-16.67774662,28.05082871,2016-07-29T10:37:11,2017-03-29T15:03:12.907000
alquiler vehiculos,Autos Jocar,AV,Avenida,Santa Cruz,65,38611,38017,Granadilla de Abona,San Isidro,www.autosjocar.com,jocar@autosjocar.com,922394383.0,,-16.558717,28.08051599,2016-05-09T12:45:15.374000,2016-07-29T10:24:37.019000
alquiler vehiculos,Autos Jocar,CL,Calle,Miraflores,8,38003,38038,Santa Cruz de Tenerife,,www.autosjocar.com,jocar@autosjocar.com,922245222.0,922272477.0,-16.25186047,28.46554783,2016-05-09T12:45:15.374000,2015-11-20T12:19:01.018000
alquiler vehiculos,Autos Mertens Rent A Car,CM,Camino,Las Cabras,1,38400,38028,Puerto de la Cruz,Martianez,www.autosmertens.de,,922383089.0,,-16.54369321,28.41512596,2016-09-29T13:28:02,2017-03-22T14:07:20.919000
alquiler vehiculos,Autos Pemai,CL,Calle,Boston,4,38650,38006,Arona,Los Cristianos Ap Summerland,,info@rentacarpemai.com,922793185.0,922793185.0,-16.7087654,28.0537108,2016-05-09T12:45:15.374000,2015-08-04T12:41:33.715000
