actividad_tipo,nombre,tipo_via_codigo,tipo_via_descripcion,direccion_nombre_via,direccion_numero,direccion_codigo_postal,municipio_codigo,municipio_nombre,referencia,web,email,telefono,fax,longitud,latitud,fecha_creacion,fecha_actualizacion
industria automocion taller,4R Automóvil,AC,Acceso,Guía Isora TF-463,S/N,36680,38019,Guía de Isora,,www.cuatro.com,cuatrorautomovil@hotmail.com,617066552.0,,-16.78502276,28.21456213,2019-04-12T16:38:45.443000,2019-04-12T16:38:45.443000
industria automocion taller,4R Automóvil,CL,Calle,Las Veredas,12,36680,38019,Guía de Isora,,www.cuatror.com,cuatrorautomovil@hotmail.com,922851256.0,,-16.78226255,28.21138105,2019-04-12T16:38:45.443000,2019-04-12T16:38:45.443000
industria automocion taller,911 Motors,AV,Avenida,Lucio Diaz Flores Feo,83,38639,38035,San Miguel,Z I Llano Del Camello,,,922736798.0,,-16.61982687,28.05483756,2017-02-15T11:40:07.893000,2017-02-16T13:51:26.067000
industria automocion taller,911 Motors,AV,Avenida,Lucio Diaz Flores Feo,83,38639,38035,San Miguel,Z I Llano Del Camello,,,922736798.0,,-16.61957526,28.05489802,2017-02-15T11:40:07.893000,2017-02-16T13:51:26.067000
industria alimentacion,A Bocados Comidaxpress,RB,Rambla,Santa Cruz,25,38006,38038,Santa Cruz de Tenerife,,,,,,-16.26042996,28.46910227,2016-05-09T12:45:15.374000,2018-01-17T14:26:22.775000
industria construccion,A Feliciano El Baño Barato,CR,Carretera,Antigua TF 655 Las Galletas,61,38639,38035,San Miguel,P I Las Chafiras,www.bañobarato.es,,922735439.0,922735749.0,-16.62149753,28.04973716,2017-02-15T11:40:07.893000,2017-06-21T11:46:14.064000
industria construccion,A Feliciano El Baño Barato,AV,Avenida,Ayyo,2,38677,38001,Adeje,P I La Atalaya,,,922710087.0,922781478.0,-16.73931136,28.12434883,2017-02-15T11:40:07.893000,2017-03-13T09:29:41.882000
industria construccion,A Feliciano El Baño Barato,CM,Camino,Los Pescadores,0,38108,38023,La Laguna,Z I Las Torres De Taco Km 4.5,www.ba?obarato.es,,922619221.0,922612307.0,-16.2923374,28.45075073,2017-02-15T11:40:07.893000,2017-03-10T09:05:18.142000
industria automocion taller,A Todo Gas,CR,Carretera,General TF 366 El Amparo,132,38438,38022,Icod de los Vinos,El Amparo,,,922811511.0,,-16.71137534,28.35802131,2016-05-09T12:45:15,2016-08-29T13:50:57.044000
industria construccion,Abencor,PG,Polígono,Industrial Valle de Guimar,0,38509,38004,Arafo,PG GUIMAR MZ 5 PARC 22 Y 23,www.abencor.com,jsuarez@abencor.com,922200380.0,,-16.37123116,28.33400258,2016-05-09T12:45:15.374000,2016-11-09T09:37:12.779000
industria construccion,Abiday Construcciones,CL,Calle,La Gorrina,14,38685,38019,Guía de Isora,,www.abidayconstrucciones.es,info@abidayconstrucciones.es,922857098.0,,-16.76467468,28.18746734,2019-04-12T16:38:45.443000,2019-04-12T16:38:45.443000
industria automocion taller,Abona Centro Integral del Automovil,CL,Calle,Paralela Autopista,0,38611,38017,Granadilla de Abona,San Isidro Km 58,,abona.vo@gmail.com,922178796.0,901707242.0,-16.553815,28.07055299,2016-05-09T12:45:15,2016-11-09T09:37:12.779000
imprenta reprografia,Abona Grafica,AV,Avenida,Santa Cruz,57,38611,38017,Granadilla de Abona,San Isidro,,abonaserigrafia@gmail.com,922391614.0,,-16.559136,28.08080199,2016-05-09T12:45:15.374000,2016-05-24T15:02:09.952000
industria automocion repuestos accesorios,Accesorios Taco,Cr,Carretera,La Zamora,124,38419,38031,Los Realejos,,,,922611000.0,,-16.56705232,28.38598796,2023-10-18T12:08:17.876000,2023-10-18T12:08:17.876000
industria automocion repuestos accesorios,Accesorios Taco,CM,Camino,Los Pescadores,5,38108,38023,La Laguna,Z I Las Torres De Taco,,attenerife@accesoriostaco.com,922611000.0,922610996.0,-16.29315856,28.45144664,2017-02-15T11:40:07.893000,2017-02-16T13:51:26.067000
industria automocion repuestos accesorios,Accesorios Taco,CM,Camino,Los Pescadores,4,38108,38023,La Laguna,Z I Las Torres De Taco,,attenerife@accesoriostaco.com,922611000.0,922610996.0,-16.29333395,28.45152489,2017-02-15T11:40:07.893000,2017-02-16T13:51:26.067000
industria construccion,Acciona,PG,Polígono,Industrial Eras Altas,0,38592,38005,Arico,Pg Las Eras Altas,,,922270402.0,,-16.42922556,28.1934094,2016-05-09T12:45:15.374000,2016-11-09T09:37:12.779000
industria construccion,Acciona Logistica,PG,Polígono,Industrial Valle de Guimar,0,38509,38011,Candelaria,PG GUIMAR MZ 4 PARC 3,www.accionalogistica.es,,922623443.0,922622687.0,-16.37190203,28.34436988,2016-05-09T12:45:15,2019-04-12T13:59:58.722000
industria construccion,Acerosiete Inox,CL,Calle,Tenbel,66,38639,38035,San Miguel,P I Las Chafiras,www.acerosieteinox.com,info@acerosieteinox.com,902103397.0,,-16.61879428,28.04780724,2017-02-15T11:40:07.893000,2017-02-16T13:51:26.067000
industria hospitalaria,Acj,CL,Calle,Isaac Peral,0,38109,38032,El Rosario,PI La Campana San Isidro,www.acjsa.com,acjtfe@acjsa.com,902280202.0,922311111.0,-16.31652496,28.41569468,2017-02-15T11:40:07.893000,2023-03-10T14:13:59.292000
industria otro tipo,Acuicultura Marina de Canarias ACUIMARCA,PG,Polígono,Industrial de Granadilla,0,38594,38017,Granadilla de Abona,Pg Granadilla,www.acuimarca.es,info@acuimarca.es,922778034.0,922778035.0,-16.49843867,28.09105656,2016-05-09T12:45:15.374000,2016-11-09T09:37:12.779000
industria otro tipo,Acuicultura Marina de Canarias ACUIMARCA,PG,Polígono,Industrial de Granadilla,0,38594,38017,Granadilla de Abona,Pg Granadilla,www.acuimarca.es,info@acuimarca.es,922778034.0,922778035.0,-16.4985483,28.0909769,2016-05-09T12:45:15.374000,2016-11-09T09:37:12.779000
industria automocion taller,Adeje Motor,AV,Avenida,Ayyo,14,38677,38001,Adeje,P I La Atalaya,www.adejemotor.es,adejemotor@hotmail.com,922775770.0,922775630.0,-16.73799806,28.12708723,2017-02-15T11:40:07.893000,2017-03-13T09:29:41.882000
industria construccion,Adesa Ceramicas,CL,Calle,Vista Alegre,5,38380,38051,La Victoria,Lc 5,,,922582571.0,,-16.467672,28.43461999,2016-05-09T12:45:15.374000,2015-08-04T13:35:09.001000
industria automocion taller,Adricar y Romero,CL,Calle,Jureña,11,38639,38035,San Miguel,Z I Las Chafiras II,,adricaryromero2007@hotmail.com,922735035.0,,-16.61062427,28.05610373,2017-02-15T11:40:07.893000,2017-05-09T14:04:22.616000
industria automocion taller,AF Motorsport,CR,Carretera,España TF 217,158,38398,38039,Santa Úrsula,,,info@autocentromotorsport.com,619182946.0,,-16.47999018,28.42451637,2018-02-01T12:44:07.556000,2018-04-10T14:28:43.352000
industria construccion,Afelsa A Feliciano,AV,Avenida,Tres de Mayo,18,38005,38038,Santa Cruz de Tenerife,,www.afelsa.es,,922219000.0,922230309.0,-16.25519223,28.45958794,2016-05-09T12:45:15.374000,2016-08-16T09:14:38.436000
industria alimentacion,Agrucan Spar,CL,Calle,El Afrecho,3,38107,38038,Santa Cruz de Tenerife,Pg El Molino,www.spartenerife.com,halonso@agrucan.com,922626595.0,922626585.0,-16.31697792,28.42311325,2016-05-09T12:45:15.374000,2016-06-28T14:01:29.133000
industria alimentacion,Agrucan Spar,CL,Calle,El Afrecho,3,38107,38038,Santa Cruz de Tenerife,Pg El Molino,www.spartenerife.com,halonso@agrucan.com,922626595.0,922626585.0,-16.31719238,28.42317062,2016-05-09T12:45:15.374000,2016-06-28T14:01:29.133000
maquinaria agricola,Agryencas,PG,Polígono,Industrial Valle de Guimar,0 ,38509,38004,Arafo,PG GUMAR MZ 1 PARC 1 NAVE 2,,,,,-16.37291799,28.33238769,2018-03-13T08:45:26.762000,2018-03-13T08:45:26.762000
industria alimentacion,Aguas de Firgas FIRTEN,CL,Calle,Las Piramides,16,38320,38023,La Laguna,Pg Los Ingenieros,,firten@aguasdefirgas.com,922643351.0,922640871.0,-16.292507,28.46410136,2016-05-09T12:45:15.374000,2016-06-08T14:56:03.261000
industria alimentacion,Aguas de Firgas FIRTEN,CL,Calle,Las Piramides,16,38320,38023,La Laguna,Pg Los Ingenieros,,firten@aguasdefirgas.com,922643351.0,922640871.0,-16.29251765,28.46374289,2016-05-09T12:45:15.374000,2016-06-08T14:56:03.261000
industria alimentacion,Aguas de Firgas FIRTEN,CL,Calle,Las Piramides,16,38320,38023,La Laguna,Pg Los Ingenieros,,firten@aguasdefirgas.com,922643351.0,922640871.0,-16.2925913,28.4637074,2016-05-09T12:45:15.374000,2016-06-08T14:56:03.261000
industria alimentacion,Aguas de Teror,CL,Calle,La Isa,36,38639,38035,San Miguel,Z I Llano Del Camello,www.aguasdeteror.com,fuenteagria@aguasdeteror.com,922735767.0,922735767.0,-16.61569337,28.05286791,2017-02-15T11:40:07.893000,2017-06-07T12:49:35.259000
industria alimentacion,Aguas de Vilaflor Fuente Alta,CL,Calle,Otto Diesel,4,38109,38032,El Rosario,PI La Campana San Isidro,www.fuentealta.es,ventas@fuente-alta.com,922102107.0,922618595.0,-16.31634351,28.41246698,2017-02-15T11:40:07.893000,2017-06-28T12:03:36.848000
industria alimentacion,Aguas de Vilaflor Fuente Alta,AV,Avenida,La Paz,4,38613,38052,Vilaflor,Pg El Chorrillo,www.fuente-alta.com,fabrica@fuente-alta.com,922709129.0,922709009.0,-16.63694029,28.16176312,2016-05-09T12:45:15.374000,2016-08-24T13:02:13.637000
industria alimentacion,Aguas de Vilaflor Fuente Alta,AV,Avenida,Modesto Hernandez Gonzalez,57,38639,38035,San Miguel,P I Las Chafiras,www.fuente-alta.com,,922735106.0,922735417.0,-16.62025686,28.04837223,2017-02-15T11:40:07.893000,2017-06-07T12:49:35.259000
industria alimentacion,Aguas de Vilaflor Fuente Alta,AV,Avenida,Modesto Hernandez Gonzalez,59,38639,38035,San Miguel,P I Las Chafiras,www.fuente-alta.com,,922735106.0,922735418.0,-16.62042292,28.04837119,2017-02-15T11:40:07.893000,2017-06-07T12:49:35.259000
industria alimentacion,Aguas de Vilaflor Fuente Alta,AV,Avenida,Modesto Hernandez Gonzalez,53,38639,38035,San Miguel,P I Las Chafiras,www.fuente-alta.com,,922735106.0,922735417.0,-16.61975662,28.04844956,2017-02-15T11:40:07.893000,2017-06-07T12:49:35.259000
industria alimentacion,Aguas de Vilaflor Fuente Alta,AV,Avenida,Modesto Hernandez Gonzalez,55,38639,38035,San Miguel,P I Las Chafiras,www.fuente-alta.com,,922735106.0,922735417.0,-16.62002513,28.04840576,2017-02-15T11:40:07.893000,2017-06-07T12:49:35.259000
industria alimentacion,Aguas de Vilaflor Fuente Alta,CL,Calle,Otto Diesel,4,38109,38032,El Rosario,PI La Campana San Isidro,www.fuentealta.es,ventas@fuente-alta.com,922102107.0,922618595.0,-16.31637674,28.41234873,2017-02-15T11:40:07.893000,2017-06-28T12:03:36.848000
industria alimentacion,Aguas del Valle de La Orotava Fonteide,CM,Camino,Los Rechazos,40,38314,38026,La Orotava,Los Rechazos,www.fonteide.com,avo@fonteide.com,922326940.0,922323097.0,-16.51706588,28.4050163,2016-05-09T12:45:15.374000,2017-03-24T08:56:15.278000
industria alimentacion,Aguas del Valle de La Orotava Fonteide,CL,Calle,Cigarrillos,0,38111,38038,Santa Cruz de Tenerife,Pg El Pilar,,,,,-16.31639736,28.42806985,2016-05-09T12:45:15.374000,2016-11-09T09:37:12.779000
industria alimentacion,Aguas del Valle de La Orotava Fonteide,Cl,Calle,La Trinidad,25,38419,38031,Los Realejos,PG San Benito,www.fonteide.com,,922326940.0,922323097.0,-16.57787563,28.38117769,2016-05-09T12:45:15.374000,2023-10-18T14:04:54.665000
industria alimentacion,Aguas del Valle de La Orotava Fonteide,CL,Calle,Tranversal Cl Charfa,0,38677,38001,Adeje,P I La Atalaya,www.fonteide.com,,902364902.0,,-16.74481314,28.12565581,2017-02-15T11:40:07.893000,2017-06-07T12:49:35.259000
industria construccion,Air Liquide España,PG,Polígono,Industrial Valle de Guimar,0,38509,38011,Candelaria,PG GUIMAR MZ 3 PARC 16 y 17,www.airliquide.es,angelsaez@airliquidecom,922505500.0,922502155.0,-16.37174401,28.34069441,2016-05-09T12:45:15.374000,2016-11-09T09:37:12.779000
industria construccion,Airven Climatizacion,AV,Avenida,Angel Romero,7,38009,38038,Santa Cruz de Tenerife,Ed Jardin del Universo,,,,,-16.273102,28.46322999,2016-05-09T12:45:15.374000,2015-08-04T10:30:50.252000
industria construccion,Aislamientos Tecnicos Canarios,CL,Calle,N Diesel,5,38109,38032,El Rosario,PI La Campana San Isidro,www.ateca-sl.com,ateca@cip.es,922620366.0,922621156.0,-16.31590377,28.41455805,2017-02-15T11:40:07.893000,2017-06-28T12:03:36.848000
industria construccion,Aislamientos Termico-Acusticos Fuerteventura Atefuer,CL,Calle,Las Macetas,0,38108,38023,La Laguna,P I Los Majuelos,www.atefuer.es,info@atefuer.com,922824048.0,922820230.0,-16.29945616,28.46124061,2017-02-15T11:40:07.893000,2017-03-10T09:05:18.142000
industria construccion,Aislamientos Termico-Acusticos Fuerteventura Atefuer,CL,Calle,Fernando Diaz Cutillas,0,38108,38023,La Laguna,P I Los Majuelos,www.atefuer.es,info@atefuer.com,922824048.0,922820230.0,-16.29961117,28.46088622,2017-02-15T11:40:07.893000,2017-03-10T09:05:18.142000
industria automocion taller,AJR Chencho,CL,Calle,Fray Luis de Granada,46,38009,38038,Santa Cruz de Tenerife,Chamberi,,,,,-16.27443318,28.45017412,2016-05-09T12:45:15.374000,2015-08-04T10:30:50.252000
industria construccion,Alarmas Verisure,AV,Avenida,Los Majuelos,3,38107,38038,Santa Cruz de Tenerife,,www.securitasdirect.es,,902366366.0,,-16.30983635,28.44451673,2016-05-09T12:45:15.374000,2016-05-12T09:24:36.076000
industria alimentacion,Albie Restauracion Social Catering y Vending,CL,Calle,Jesus Hernandez Guzman,19,38110,38038,Santa Cruz de Tenerife,Z I Mercatenerife Nave A 11,www.plataformaalbie.es,info@dargaexpress.com,914356448.0,915765845.0,-16.28275823,28.43871526,2017-02-15T11:40:07.893000,2017-03-24T07:15:26.864000
industria automocion repuestos accesorios,Alcomotor,CL,Calle,Subida Al Mayorazco,4,38110,38038,Santa Cruz de Tenerife,P I El Mayorazgo,,alcomotor@interbook.net,922200511.0,922200433.0,-16.282101,28.4437931,2017-02-15T11:40:07.893000,2017-02-16T13:51:26.067000
industria automocion taller,Alexis Servicio Neumaticos,PG,Polígono,Industrial Valle de Guimar,0,38509,38004,Arafo,PG GUIMAR MZ 5 PARC 22 Y 23 NAVE 2,,snalexis@hotmail.com,922583315.0,922583315.0,-16.37123916,28.33382397,2016-05-09T12:45:15.374000,2018-05-24T17:22:06.194000
industria alimentacion,Alimentos Pampa y Mar,CL,Calle,Las Piramides,5,38320,38023,La Laguna,Pg Los Ingenieros,,ventas@pampaymar.es,922657409.0,922642253.0,-16.29119064,28.46406725,2016-05-09T12:45:15.374000,2016-06-28T13:00:48.508000
industria automocion taller,Alineacion y Contrapesado Miguel,CR,Carretera,General TF 152 Norte,360,38340,38043,Tacoronte,Pg Los Naranjeros II,,,922563482.0,,-16.39003253,28.48600701,2016-05-09T12:45:15.374000,2016-06-16T09:21:53.322000
industria almacen deposito,Almacen,CL,Calle,Laura Grote De La Puerta,0,38110,38038,Santa Cruz de Tenerife,P I El Mayorazgo,,,0.0,,-16.28314267,28.44329225,2017-02-15T11:40:07.893000,2017-03-10T09:05:18.142000
industria almacen deposito,Almacen,CL,Calle,Juan De La Cierva,0,38109,38032,El Rosario,PI La Campana San Isidro,,,0.0,,-16.3175182,28.4132165,2017-02-15T11:40:07.893000,2017-06-28T12:03:36.848000
industria almacen deposito,Almacen,CL,Calle,Laura Grote De La Puerta,1,38110,38038,Santa Cruz de Tenerife,P I El Mayorazgo,,,0.0,,-16.28504806,28.4432043,2017-02-15T11:40:07.893000,2017-02-16T13:51:26.067000
industria almacen deposito,Almacen,CR,Carretera,Hoya Fria,0,38110,38038,Santa Cruz de Tenerife,P I El Mayorazgo,,,0.0,,-16.28133446,28.44435434,2017-02-15T11:40:07.893000,2017-03-10T09:05:18.142000
industria almacen deposito,Almacenaje Deposito,CL,Calle,Archajara,0,38677,38001,Adeje,P I La Atalaya,,,0.0,,-16.73873711,28.12667589,2017-02-15T11:40:07.893000,2017-03-10T09:05:18.142000
industria almacen deposito,Almacenaje Deposito En Nave,CL,Calle,Tenderete,0,38108,38023,La Laguna,P I Los Majuelos,,,0.0,,-16.30059015,28.45837886,2017-02-15T11:40:07.893000,2017-03-10T09:05:18.142000
industria alimentacion,Almacenes y Frigorificos Del Atlantico,CL,Calle,Fundadores Cooperativa,19,38639,38035,San Miguel,Z I Llano Del Camello,,,922735076.0,922735388.0,-16.61337017,28.05509139,2017-02-15T11:40:07.893000,2017-02-16T13:51:26.067000
industria alimentacion,Almacenes y Frigorificos Del Atlantico,CL,Calle,Fundadores Cooperativa,19,38639,38035,San Miguel,Z I Llano Del Camello,,,922735076.0,922735388.0,-16.61289333,28.05522509,2017-02-15T11:40:07.893000,2017-02-16T13:51:26.067000
industria carpinteria metalica,Almenar e Hijos,CL,Calle,Ismael Dominguez,37,38350,38043,Tacoronte,,,,922560673.0,922563870.0,-16.41738157,28.47789639,2016-05-09T12:45:15.374000,2015-08-04T13:42:46.792000
industria automocion taller,Alonso Motor,CL,Calle,Ingenios Azucareros,16,38312,38026,La Orotava,P I San Jeronimo,,,0.0,,-16.54272429,28.39657285,2017-02-15T11:40:07.893000,2017-02-16T13:51:26.067000
industria automocion taller,Alonso Motor Am,CL,Calle,El Baden,3,38312,38026,La Orotava,P I San Jeronimo,www.repuestosorotava.com,alonsomotor@hotmail.com,922193671.0,,-16.54203885,28.39670264,2017-02-15T11:40:07.893000,2017-02-16T13:51:26.067000
industria construccion,Alquiler Maquinaria del Rosario Delgado,CL,Calle,Lomo Molino,19,38500,38020,Güimar,,,,922510927.0,,-16.403982,28.31488199,2016-05-09T12:45:15.374000,2015-08-04T10:57:05.185000
industria construccion,Alquiler y Transportes Pedro Trujillo,CL,Calle,La Isa,38,38639,38035,San Miguel,Z I Llano Del Camello,www.pedrotrujillo.com,pedro@pedrotrujillo.com,922736800.0,922736748.0,-16.61575699,28.05305612,2017-02-15T11:40:07.893000,2017-02-16T13:51:26.067000
imprenta reprografia,Alternativa Digital Canaria,CL,Calle,Laura Grote De La Puerta,0,38110,38038,Santa Cruz de Tenerife,P I El Mayorazgo,,,922823432.0,,-16.28543502,28.44289877,2017-02-15T11:40:07.893000,2017-03-10T09:05:18.142000
industria carpinteria aluminio,Alucan,PG,Polígono,Industrial Valle de Guimar,0,38509,38020,Güimar,Pg Guimar,www.alucansa.com,info@alucansa.com,922500223.0,922500166.0,-16.3721854,28.32556782,2016-05-09T12:45:15.374000,2018-05-24T17:22:06.194000
industria carpinteria aluminio,Alucan,PG,Polígono,Industrial Valle de Guimar,0,38509,38011,Candelaria,PG GUIMAR MZ 3 PARC 11 12 13 14 Y 15,www.alucansa.com,info@alucansa.com,922500223.0,922500166.0,-16.37166362,28.34231217,2016-05-09T12:45:15.374000,2016-11-09T09:37:12.779000
industria carpinteria aluminio,Alucasa,CM,Camino,La Palma,11,38434,38022,Icod de los Vinos,Santa Barbara,,,636725908.0,922121178.0,-16.69175509,28.36918621,2016-05-09T12:45:15.374000,2018-03-06T07:51:31.636000
industria carpinteria aluminio,Alucris Cristaleria,AV,Avenida,Isora,89,36680,38019,Guía de Isora,Guia de Isora,,aluminioalucris@gmail.com,922850145.0,,-16.78209441,28.21243805,2016-05-09T12:45:15.374000,2019-04-12T11:56:11.551000
industria construccion,Aludeco,Cl,Calle,Puerto Franco,3,38410,38031,Los Realejos,Realejo Bajo Ed Los Tulipanes,,alu.deco@hotmail.com,922346680.0,,-16.58485344,28.38901322,2016-05-09T12:45:15.374000,2023-10-18T14:04:54.665000
industria carpinteria aluminio,Aludecor,CL,Calle,San Nicolas Trasera,5,38108,38023,La Laguna,San Matias,,,,,-16.29494836,28.44078905,2016-05-09T12:45:15.374000,2015-08-04T10:43:56.867000
industria carpinteria aluminio,Aluforja,CR,Carretera,General TF 217 Norte,210,38389,38051,La Victoria,,,,922581602.0,922581434.0,-16.477797,28.42863999,2016-05-09T12:45:15.374000,2015-08-04T13:36:35.141000
industria carpinteria aluminio,Alujardin,CL,Calle,El Jardin,22,38419,38031,Los Realejos,El Jardin,,,922342423.0,922342423.0,-16.57329183,28.38901778,2016-05-09T12:45:15.374000,2015-08-04T13:18:59.780000
industria carpinteria aluminio,Alujardin,CL,Calle,El Jardin,22,38419,38031,Los Realejos,El Jardin,,,922342423.0,922342423.0,-16.57290306,28.38978522,2019-03-15T12:04:51.436000,2019-03-15T12:04:51.436000
industria carpinteria aluminio,Alumcadi,CM,Camino,Las Haciendas,61,38291,38023,La Laguna,Los Baldios,www.alumcadi.com,,922253472.0,922314254.0,-16.32412509,28.4691301,2016-08-01T13:22:06.484000,2016-08-01T13:22:06.484000
industria carpinteria aluminio,Alumcristal,CL,Calle,Magallanes,6,38108,38023,La Laguna,Taco,,alumcristal@hotmail.es,922638606.0,,-16.30179838,28.44772111,2016-05-09T12:45:15.374000,2016-02-04T07:28:42.618000
industria carpinteria aluminio,Aluminio Cristaleria Tenerife Sur,CR,Carretera,General TF 28 Sur,59,38620,38035,San Miguel,,,,,,-16.61528625,28.10014301,2016-05-09T12:45:15.374000,2015-08-05T07:32:57.630000
industria carpinteria aluminio,Aluminio Ferrer,CR,Carretera,General TF 281 Subida Arafo,7,38509,38004,Arafo,El Carreton,,,922512310.0,,-16.37841256,28.32816785,2016-05-17T15:06:27,2016-05-18T10:22:42.824000
industria carpinteria aluminio,Aluminio J Rivero,CL,Calle,Eduardo de Roo,3,38320,38023,La Laguna,La Cuesta,,,822021324.0,,-16.28815327,28.47112625,2016-05-09T12:45:15.374000,2015-08-04T10:33:10.329000
industria carpinteria aluminio,Aluminio Perfer,CR,Carretera,General TF 351 San Jose,71,38428,38034,San Juan de la Rambla,San Jose,,aluperfersl@hotmail.com,,,-16.641329,28.38121999,2016-05-09T12:45:15.374000,2016-05-24T11:46:13.881000
industria carpinteria aluminio,Aluminio Rion,CL,Calle,Mejenero,10,38290,38032,El Rosario,La Esperanza,,,,,-16.370081,28.44736499,2016-05-09T12:45:15.374000,2015-08-04T10:49:35.113000
industria carpinteria aluminio,Aluminio y Carpinteria Alcar,PG,Polígono,Industrial Valle de Guimar,0,38509,38004,Arafo,PG GUIMAR MZ B PARC 1,www.alcarsa.es,tenerife@alcarsa.es,922539771.0,922539615.0,-16.3742024,28.32957031,2016-05-09T12:45:15.374000,2016-11-09T09:37:12.779000
industria carpinteria aluminio,Aluminio y Cristaleria ALUCRIS,CM,Camino,Cementerio,1,38680,38019,Guía de Isora,Pg Guia Isora,www.aluminioycristaleriaalucris.com,info@aluminioycristaleriaalucris.com,922850145.0,,-16.77392393,28.20783124,2016-05-09T12:45:15.374000,2016-08-24T13:02:13.637000
industria carpinteria aluminio,Aluminios Abel Felipe,CM,Camino,Hondo,13,38292,38046,Tegueste,Pedro Alvarez,,,620045750.0,,-16.3172,28.52120999,2016-05-09T12:45:15.374000,2015-08-04T13:50:59.466000
industria carpinteria aluminio,Aluminios Acentejo,CL,Calle,El Pino,5,38380,38051,La Victoria,,,,922580063.0,,-16.47004443,28.43312959,2016-05-09T12:45:15.374000,2015-11-24T12:59:06.552000
industria carpinteria aluminio,Aluminios Alcala,CL,Calle,Los Suspiros,17,38686,38019,Guía de Isora,Alcala,,,,,-16.83010661,28.20194069,2016-05-09T12:45:15.374000,2015-08-04T12:53:56.299000
industria carpinteria aluminio,Aluminios Alclad,AV,Avenida,Abona,70,38611,38017,Granadilla de Abona,San Isidro,,alcladaluminios@hotmail.com,922392384.0,,-16.556949,28.0863687,2016-05-09T12:45:15.374000,2017-05-16T10:22:12.840000
industria carpinteria aluminio,Aluminios Alcoral,CL,Calle,Francisco Bello,76,38320,38023,La Laguna,La Cuesta Bo La Candelaria,www.paludariosalcoral.com,,620857701.0,922660674.0,-16.28395374,28.47123576,2017-10-30T09:30:21.334000,2017-10-30T09:30:21.334000
industria carpinteria aluminio,Aluminios Alfonso Amador,CR,Carretera,General TF 66 Cruz del Guanche Guaza,274,38627,38006,Arona,Buzanada,,,617991865.0,922722333.0,-16.66103847,28.07134752,2016-07-25T14:07:10.516000,2016-07-25T14:07:10.516000
industria carpinteria aluminio,Aluminios Alsa Canarias,CR,Carretera,Vieja TF 213,52,38389,38051,La Victoria,,,,,,-16.480877,28.42910999,2016-05-09T12:45:15.374000,2015-08-04T13:36:35.141000
industria carpinteria aluminio,Aluminios Alucan,CL,Calle,Acentejo,1,38379,38025,La Matanza,Entrada Puntillo del Sol,www.alucansa.com,info@alucansa.com,922577270.0,922577390.0,-16.44872466,28.46023295,2016-05-09T12:45:15.374000,2015-08-05T07:38:22.579000
industria carpinteria aluminio,Aluminios Aludos,CL,Calle,Lomo Hilos,3,38398,38039,Santa Úrsula,,,,922302622.0,922304430.0,-16.48519781,28.42345564,2017-01-16T10:54:56,2017-01-16T10:54:56
industria carpinteria aluminio,Aluminios Alumenor,CL,Calle,Lomo Clerigo,15,38677,38001,Adeje,Iboibo,,,922163034.0,,-16.76455304,28.14953627,2017-12-12T14:11:56.046000,2017-12-12T14:11:56.046000
industria carpinteria aluminio,Aluminios Alusal,CL,Calle,Rivera,3,38320,38023,La Laguna,Salud Alto,,,922202007.0,,-16.28184729,28.4693157,2016-05-09T12:45:15.374000,2015-08-04T10:33:10.329000
industria carpinteria aluminio,Aluminios Alusenay,CR,Carretera,General TF 24 Las Cañadas,16,38290,38032,El Rosario,La Esperanza,,,,,-16.36137,28.45675699,2016-05-09T12:45:15.374000,2015-08-04T10:49:35.113000
industria carpinteria aluminio,Aluminios Aluvan,CR,Carretera,General TF 66 Cruz del Guanche Guaza,132,38626,38006,Arona,Valle San Lorenzo,,aluvancarpinteria@gmail.com,922728050.0,0.0,-16.66174025,28.08017462,2016-05-09T12:45:15.374000,2015-08-04T12:31:10.347000
industria carpinteria aluminio,Aluminios Aluvol,CL,Calle,Tagoror,22,38509,38020,Güimar,La Hidalga,,,687969086.0,,-16.40025795,28.33173271,2016-05-09T12:45:15.374000,2015-08-04T10:55:12.015000
industria carpinteria aluminio,Aluminios Aluxsa,CL,Calle,Princesa Ifara,31,38611,38017,Granadilla de Abona,San Isidro,,,922390952.0,,-16.55562598,28.07822884,2016-05-09T12:45:15.374000,2015-08-04T11:58:50.747000
industria carpinteria aluminio,Aluminios Andrea,CL,Calle,Arrayanero,4,38380,38051,La Victoria,,,,664262691.0,,-16.46214196,28.4380799,2016-05-09T12:45:15.374000,2017-03-24T08:59:17.357000
industria carpinteria aluminio,Aluminios Andrea,CL,Calle,Domingo Salazar,85,38389,38051,La Victoria,Ed Correa  y Alvarez,,,922581742.0,,-16.474766,28.42980999,2016-05-09T12:45:15.374000,2015-08-04T13:36:35.141000
industria carpinteria aluminio,Aluminios Archipielago,CL,Calle,Arrayanero,13,38380,38051,La Victoria,,,,922581835.0,,-16.47410544,28.43003896,2016-05-09T12:45:15.374000,2017-03-24T08:59:17.357000
industria carpinteria aluminio,Aluminios Arona,CR,Carretera,General TF 366 El Amparo,172,38438,38022,Icod de los Vinos,El Amparo,,,922122062.0,922122062.0,-16.71213929,28.35665657,2016-05-09T12:45:15.374000,2015-08-04T13:10:36.692000
industria carpinteria aluminio,Aluminios Barreto,CL,Calle,La Asomadita,5,38107,38038,Santa Cruz de Tenerife,El Sobradillo,,,922616860.0,922629107.0,-16.31854764,28.44438907,2016-05-09T12:45:15.374000,2017-03-24T07:22:59.242000
industria carpinteria aluminio,Aluminios Benito Bautes e hijos,CL,Calle,Las Higueritas,59,38355,38043,Tacoronte,Agua Garcia,,,922584955.0,,-16.40756412,28.4665221,2018-05-09T10:00:57.758000,2018-05-09T10:00:57.758000
industria carpinteria aluminio,Aluminios Cabo Blanco,CL,Calle,El Escobonal,6,38627,38006,Arona,Cabo Blanco,,,922720335.0,922720888.0,-16.6704714,28.07402525,2017-08-23T08:56:03.514000,2017-09-21T10:42:53.207000
industria carpinteria aluminio,Aluminios Carpal,CR,Carretera,General TF 13 Punta Hidalgo,213,38280,38046,Tegueste,,,,,,-16.34203321,28.52239063,2016-05-09T12:45:15.374000,2016-05-24T09:01:45.993000
industria carpinteria aluminio,Aluminios Cortizo Canarias,PG,Polígono,Industrial de Granadilla,0,38594,38017,Granadilla de Abona,Pg Granadilla,www.cortizo.com,canarias@cortizo.com,922392532.0,922392289.0,-16.50031827,28.09142556,2016-05-09T12:45:15.374000,2016-11-09T09:37:12.779000
industria carpinteria aluminio,Aluminios Cortizo Canarias,PG,Polígono,Industrial de Granadilla,0,38594,38017,Granadilla de Abona,Pg Granadilla,www.cortizo.com,canarias@cortizo.com,922392532.0,922392289.0,-16.49900365,28.09140012,2016-05-09T12:45:15.374000,2016-11-09T09:37:12.779000
industria carpinteria aluminio,Aluminios Cristino e Hijos,CM,Camino,Tamaragua,29,38296,38023,La Laguna,San Bartolome de Geneto,,,696466660.0,,-16.30985096,28.46093089,2016-05-23T09:06:55,2018-01-16T07:32:45.523000
industria carpinteria aluminio,Aluminios Cruz,CR,Carretera,General TF 272 El Sobradillo,22,38107,38038,Santa Cruz de Tenerife,El Sobradillo,,,922612502.0,922618021.0,-16.31048092,28.43978377,2016-08-19T10:09:48.300000,2018-01-12T12:08:46.233000
industria carpinteria aluminio,Aluminios Cheche,CL,Calle,Mencey,16,38600,38017,Granadilla de Abona,Charco del Pino,,,922772903.0,,-16.5924631,28.11168126,2016-05-09T12:45:15.374000,2018-03-06T12:39:01.965000
industria carpinteria aluminio,Aluminios Chinamada,CR,Carretera,General TF 217 Norte,156,38380,38051,La Victoria,,www.aluminios-chinamada.es,aluminioschinamada@hotmail.com,922313001.0,,-16.47540313,28.43128385,2016-05-09T12:45:15.374000,2015-11-24T14:34:52.458000
industria carpinteria aluminio,Aluminios Deniz,CL,Calle,El Bufadero,72,38180,38038,Santa Cruz de Tenerife,,,,696141124.0,922596442.0,-16.22591966,28.49912457,2016-05-09T12:45:15.374000,2016-06-07T14:54:02.871000
industria carpinteria aluminio,Aluminios El Cardonal,PG,Polígono,Industrial Valle de Guimar,0,38509,38020,Güimar,PG GUIMAR MZ F PARC 14,www.cristaleriaelcardonal.com,presupuestos@cristaleriaelcardonal.com,922613120.0,922613495.0,-16.36696609,28.32930797,2016-05-09T12:45:15.374000,2016-11-09T09:37:12.779000
industria carpinteria aluminio,Aluminios El Cardonal,PG,Polígono,Industrial Valle de Guimar,0,38509,38020,Güimar,PG GUIMAR MZ F PARC 14,www.cristaleriaelcardonal.com,presupuestos@cristaleriaelcardonal.com,922613120.0,922613495.0,-16.36696609,28.32930797,2016-05-09T12:45:15.374000,2016-11-09T09:37:12.779000
industria carpinteria aluminio,Aluminios El Cardonal,PG,Polígono,Industrial Valle de Guimar,0,38509,38020,Güimar,PG GUIMAR MZ F PARC 15,www.cristaleriaelcardonal.com,presupuestos@cristaleriaelcardonal.com,922613120.0,922613495.0,-16.36718108,28.32931849,2016-05-09T12:45:15.374000,2016-11-09T09:37:12.779000
industria carpinteria aluminio,Aluminios El Cardonal,PG,Polígono,Industrial Valle de Guimar,0,38509,38020,Güimar,PG GUIMAR MZ F PARC 15,www.cristaleriaelcardonal.com,presupuestos@cristaleriaelcardonal.com,922613120.0,922613495.0,-16.36718108,28.32931849,2016-05-09T12:45:15.374000,2016-11-09T09:37:12.779000
industria carpinteria aluminio,Aluminios El Cardonal,PG,Polígono,Industrial Valle de Guimar,0,38509,38020,Güimar,PG GUIMAR MZ F PARC 15,www.cristaleriaelcardonal.com,presupuestos@cristaleriaelcardonal.com,922613120.0,922613495.0,-16.36718108,28.32931849,2016-05-09T12:45:15.374000,2016-11-09T09:37:12.779000
industria carpinteria aluminio,Aluminios El Cardonal,PG,Polígono,Industrial Valle de Guimar,0,38509,38020,Güimar,PG GUIMAR MZ F PARC 14,www.cristaleriaelcardonal.com,presupuestos@cristaleriaelcardonal.com,922613120.0,922613495.0,-16.36696609,28.32930797,2016-05-09T12:45:15.374000,2016-11-09T09:37:12.779000
industria carpinteria aluminio,Aluminios El Coto,CM,Camino,Montaña de Guerra,12,38329,38023,La Laguna,Cruz de Guerra,,aluminioselcoto@hotmail.com,922662040.0,,-16.28646753,28.48111941,2016-08-01T13:30:19.959000,2016-08-01T13:30:19.959000
industria carpinteria aluminio,Aluminios El Tanque,CL,Calle,Colon,1,38435,38044,El Tanque,,,,922136092.0,,-16.779663,28.35677899,2016-05-09T12:45:15.374000,2015-08-04T12:58:55.904000
industria carpinteria aluminio,Aluminios El Volcan Tejera,CL,Calle,Tagoror,22,38509,38020,Güimar,La Hidalga,www.elvolcantejera.com,informacion@elvolcantejera.com,922512458.0,922513609.0,-16.40018438,28.33167103,2016-05-09T12:45:15.374000,2015-08-04T10:55:12.015000
industria carpinteria aluminio,Aluminios Enrique,AV,Avenida,Inmaculada Concepcion,46,38360,38041,El Sauzal,,,aenriques@tpi.infomail.es,922572531.0,922572531.0,-16.43351667,28.47968888,2016-05-09T12:45:15.374000,2016-06-16T09:21:53.322000
industria carpinteria aluminio,Aluminios Fantino,CR,Carretera,General TF 66 Guaza Las Galletas,45,38632,38006,Arona,Guaza Esq Cl Cahice,www.aluminiosfantino.com,,922169967.0,,-16.67825637,28.04821161,2016-05-23T14:23:56.253000,2016-05-23T14:23:56.253000
industria carpinteria aluminio,Aluminios Gil,CL,Calle,Majada Las Vacas,20,38290,38032,El Rosario,La Esperanza,,aluminiosgil@hotmail.com,922548446.0,922548446.0,-16.370796,28.44527199,2016-05-09T12:45:15.374000,2015-08-04T10:49:35.113000
industria carpinteria aluminio,Aluminios Guancha,CR,Carretera,General TF 342 La Orotava La Guancha,12,38434,38022,Icod de los Vinos,Pg La Mancha,,,922813388.0,922812341.0,-16.69538472,28.37741412,2016-05-09T12:45:15,2016-08-09T12:11:24.113000
industria carpinteria aluminio,Aluminios Guancha,CR,Carretera,General TF 342 La Orotava La Guancha,12,38434,38022,Icod de los Vinos,Pg La Mancha,,,922813388.0,922812341.0,-16.69537299,28.37720319,2016-05-09T12:45:15,2016-08-09T12:11:24.113000
industria carpinteria aluminio,Aluminios Guillermo,CM,Camino,Bufadero,62,38180,38038,Santa Cruz de Tenerife,Maria Jimenez,,,606098129.0,922597167.0,-16.22593739,28.4984039,2016-05-09T12:45:15.374000,2015-08-04T10:06:12.334000
industria carpinteria aluminio,Aluminios Hernandez Bello,CL,Calle,Santo Domingo Custodio,21,38108,38023,La Laguna,El Cardonal,,,922613120.0,,-16.29778397,28.45199467,2016-07-25T12:44:26.739000,2016-07-25T12:44:26.739000
industria carpinteria aluminio,Aluminios Hernandez y Herrera,CL,Calle,Olimpia,63,38632,38006,Arona,Pg Costa del Silencio,,info@aluminioshh.com,922731022.0,922732052.0,-16.63860065,28.03018614,2016-05-09T12:45:15.374000,2016-06-21T13:54:10.243000
industria carpinteria aluminio,Aluminios Icocia,CL,Calle,La Candelaria,45,38550,38004,Arafo,El Carmen,,aluminiosicocia@hotmail.com,922512102.0,,-16.41610515,28.33469467,2016-05-18T12:16:17.160000,2016-05-18T12:16:17.160000
industria carpinteria aluminio,Aluminios Jape,AV,Avenida,Santiago Apostol,28,38410,38031,Los Realejos,Realejo Alto,,,,,-16.5828764,28.37676577,2016-05-09T12:45:15.374000,2015-08-04T13:18:21.764000
industria carpinteria aluminio,Aluminios Jose,CR,Carretera,Nueva Corujera,73,38399,38039,Santa Úrsula,La Corujera,,,647540594.0,922300029.0,-16.49820594,28.4156134,2016-05-09T12:45:15,2018-04-10T14:25:43.419000
industria carpinteria aluminio,Aluminios Juancir,CR,Carretera,General TF 13 Punta Hidalgo,52,38292,38046,Tegueste,,,,,,-16.317129,28.51567999,2016-05-09T12:45:15.374000,2015-08-04T13:50:59.466000
industria carpinteria aluminio,Aluminios Julio y Nicolas,CR,Carretera,General TF 217 Norte,108,38380,38051,La Victoria,,,,922580811.0,,-16.47339887,28.43375223,2016-05-09T12:45:15.374000,2015-11-24T13:50:53.196000
industria carpinteria aluminio,Aluminios La Brega,CL,Calle,Nuestra Señora de los Remedios,2,38108,38023,La Laguna,Taco,,,922629605.0,922629605.0,-16.29883192,28.44552973,2016-05-09T12:45:15.374000,2018-01-12T14:11:08.982000
industria carpinteria aluminio,Aluminios La Caleta,CL,Calle,San Ramon,24,38460,38042,Los Silos,La Caleta de Interian,,,922841014.0,922841014.0,-16.79593543,28.37411825,2016-05-09T12:45:15.374000,2015-08-04T13:03:22.870000
industria carpinteria aluminio,Aluminios La Corujera,CL,Calle,Granadillo,1,38399,38039,Santa Úrsula,La Corujera,,aluminioslacorujera1@hotmail.com,650971912.0,,-16.49392936,28.4182935,2018-02-01T10:29:13.920000,2018-04-10T14:25:43.419000
industria carpinteria aluminio,Aluminios La Planta,CL,Calle,Secundino Delgado,29,38500,38020,Güimar,,,,922510019.0,,-16.40677583,28.31940419,2016-05-09T12:45:15.374000,2015-08-04T10:57:05.185000
industria construccion,Aluminios Las Zocas,CR,Carretera,General TF 65 Los Abrigos,150,38628,38035,San Miguel,Las Zocas,,,922167276.0,,-16.61326515,28.07918324,2016-05-09T12:45:15.374000,2015-08-04T12:03:19.806000
industria carpinteria aluminio,Aluminios Los Andenes,CL,Calle,Ramon y Cajal,9,38108,38023,La Laguna,Los Andenes Montaña Pacho,,,922622962.0,,-16.30697614,28.44959214,2016-05-09T12:45:15.374000,2016-04-28T09:52:33.643000
industria carpinteria aluminio,Aluminios Lumarvis,CR,Carretera,General TF 342 Icod El Alto,178,38414,38031,Los Realejos,Icod El Alto,,aluminioslumarvis@azu.es,619256281.0,922359845.0,-16.61704111,28.38101466,2016-05-09T12:45:15.374000,2015-12-02T08:41:21.011000
industria carpinteria aluminio,Aluminios Luviel,CM,Camino,Cercado del Señor,17,38260,38023,La Laguna,Tejina,,,,,-16.36307289,28.54179174,2016-05-09T12:45:15.374000,2015-08-04T13:52:10.359000
industria carpinteria aluminio,Aluminios M&H,CL,Calle,Chafira,50,38110,38038,Santa Cruz de Tenerife,Z I Las Moraditas NaVe I,www.aluminiosmyh.com,aluminiosmyh@hotmail.com,922822060.0,922629194.0,-16.28877316,28.44357519,2017-02-15T11:40:07.893000,2017-11-02T09:29:32.047000
industria carpinteria aluminio,Aluminios Machado,CR,Carretera,General Machado Llano Blanco,6,38190,38032,El Rosario,Llano Blanco,,,922680379.0,922680514.0,-16.329256,28.41127999,2016-05-09T12:45:15.374000,2015-08-04T10:48:27.598000
industria carpinteria aluminio,Aluminios Marcos,CL,Calle,Martin Placeres,17,36680,38019,Guía de Isora,Guia de Isora,,aluminiosmarcos@hotmail.com,922851187.0,629339265.0,-16.77943925,28.21222698,2016-05-09T12:45:15.374000,2019-04-12T11:56:20.113000
industria carpinteria aluminio,Aluminios Norte,CL,Calle,Pérez Galdós,18,36680,38019,Guía de Isora,,,aluminiosnorte@gmx.es,666104320.0,,-16.78203445,28.21311204,2019-04-12T16:38:45.443000,2019-04-12T16:38:45.443000
industria carpinteria aluminio,Aluminios Oramas ALOR,PG,Polígono,Industrial Valle de Guimar,0,38509,38011,Candelaria,PG GUIMAR MZ 7 PARC 22,,,922502218.0,922502218.0,-16.36981913,28.34019935,2016-05-09T12:45:15.374000,2016-11-09T09:37:12.779000
industria carpinteria aluminio,Aluminios Perfer,Av,Avenida,XXV de Noviembre,10,38441,38018,La Guancha,Santa Catalina,www.aluminiosperfersl.com,aluperfersl@hotmail.com,922360597.0,922360736.0,-16.65898891,28.39245735,2023-10-18T12:08:17.876000,2023-10-18T12:08:17.876000
industria carpinteria aluminio,Aluminios Polco,CL,Calle,Cruz de Candelaria,27,38203,38023,La Laguna,,,,657907370.0,922259577.0,-16.32261025,28.48675039,2016-05-09T12:45:15.374000,2015-08-26T13:38:35.997000
industria carpinteria aluminio,Aluminios Robego,CL,Calle,Bandurria,9,38434,38022,Icod de los Vinos,Pg Las Almenas,www.aluminios-robego.com,robego@cip.es,922812511.0,922815593.0,-16.69406779,28.38077359,2016-05-09T12:45:15.374000,2016-06-16T09:21:53.322000
industria carpinteria aluminio,Aluminios San Blas,CL,Calle,Arrayan,47,38379,38025,La Matanza,,,,922577244.0,,-16.44887119,28.44753769,2016-05-09T12:45:15.374000,2015-08-04T13:38:28.921000
industria carpinteria aluminio,Aluminios Santa Barbara,CM,Camino,Julan,3,38434,38022,Icod de los Vinos,Santa Barbara,,,625628134.0,922812935.0,-16.70173098,28.36913324,2016-06-07T08:51:06.993000,2018-02-23T13:06:02.684000
industria carpinteria aluminio,Aluminios Santa Rosa,CR,Carretera,General TF 154 Portezuelo Las Toscas,418,38292,38046,Tegueste,El Portezuelo Alto,,,,,-16.35619,28.49152999,2016-05-09T12:45:15,2016-05-24T09:53:31.081000
industria carpinteria aluminio,Aluminios Santa Ursula,CR,Carretera,Vieja TF 213,19,38390,38039,Santa Úrsula,La Vera,,,922301012.0,,-16.48611922,28.42788774,2016-05-09T12:45:15.374000,2016-02-18T10:32:45.109000
industria carpinteria aluminio,Aluminios Sauzal,CL,Calle,Herrera,51,38360,38041,El Sauzal,,,,922564318.0,,-16.43127222,28.47723055,2016-05-09T12:45:15.374000,2016-06-28T09:30:55.033000
industria carpinteria aluminio,Aluminios Tacoronte,CR,Carretera,General TF 228 Aguagarcia,71,38357,38043,Tacoronte,Casas Altas,,,922563940.0,,-16.40351855,28.4743065,2018-05-09T10:11:39.647000,2018-09-21T10:28:13.354000
industria carpinteria aluminio,Aluminios Tagoror,CL,Calle,Calvario,114,38350,38043,Tacoronte,,,,922560488.0,,-16.40331582,28.48479634,2016-05-09T12:45:15.374000,2016-02-18T10:32:45.109000
industria carpinteria aluminio,Aluminios Tahoro,CR,Carretera,General TF 326 Palo Blanco,25,38413,38031,Los Realejos,Palo Blanco,,,922354944.0,922344143.0,-16.57084859,28.37584272,2016-05-09T12:45:15.374000,2023-10-18T14:41:54.296000
industria carpinteria aluminio,Aluminios Tamarco,CR,Carretera,General TF 154 Portezuelo Las Toscas,17,38292,38046,Tegueste,El Socorro,,comercial@alu-tamarco.com,902364097.0,922544987.0,-16.349649,28.52222999,2016-05-09T12:45:15.374000,2015-08-04T13:50:59.466000
industria carpinteria aluminio,Aluminios Tegueste,CM,Camino,Mederos,4,38292,38046,Tegueste,,,,,,-16.346617,28.52263999,2016-05-09T12:45:15.374000,2015-08-04T13:50:59.466000
industria carpinteria aluminio,Aluminios Tenerife,CR,Carretera,Vieja TF 213,59,38389,38051,La Victoria,,,,922582042.0,922582032.0,-16.481098,28.42871499,2016-05-09T12:45:15.374000,2015-08-04T13:36:35.141000
industria carpinteria aluminio,Aluminios Tenerife,CL,Calle,Ingenios Azucareros,26,38312,38026,La Orotava,P I San Jeronimo,www.aluminiostenerife.com,administracion@aluminiostenerife.com,922328097.0,922335807.0,-16.54357341,28.39657332,2017-02-15T11:40:07.893000,2017-02-16T13:51:26.067000
industria carpinteria aluminio,Aluminios Tolcan,CL,Calle,Siete Islas Canarias,100,38639,38035,San Miguel,Z I Llano Del Camello,,,922736089.0,922736265.0,-16.61891661,28.05192352,2017-02-15T11:40:07.893000,2017-02-16T13:51:26.067000
industria carpinteria aluminio,Aluminios Tolcan,CL,Calle,Siete Islas Canarias,100,38639,38035,San Miguel,Z I Llano Del Camello,,,922736089.0,922736265.0,-16.61893489,28.05194689,2017-02-15T11:40:07.893000,2017-02-16T13:51:26.067000
industria carpinteria aluminio,Aluminios Tomas Leon,CL,Calle,Guanches,117,38399,38039,Santa Úrsula,La Corujera,,tomasleonaluminio@gmail.com,922301704.0,,-16.49473155,28.41394192,2016-05-09T12:45:15,2018-04-10T14:25:43.419000
industria carpinteria aluminio,Aluminios Vazquez Garcia,CL,Calle,La Palma,4,38311,38026,La Orotava,La Florida,www.aluminiosvazquezgarcia.com,,922093636.0,,-16.50267614,28.38977443,2016-05-09T12:45:15.374000,2015-08-04T13:31:40.098000
industria carpinteria aluminio,Aluminios Vicente,CL,Calle,El Jardin,72,38419,38031,Los Realejos,El Jardin,,,922353842.0,,-16.57123191,28.38910463,2016-05-09T12:45:15.374000,2015-08-04T13:18:59.780000
industria carpinteria aluminio,Aluminios Vicente,Cl,Calle,Los Herreros,12,38419,38031,Los Realejos,,www.aluminiosvicenteentenerife.es,aluminiosvicente@hotmail.com,922335234.0,,-16.5753248,28.38285536,2023-10-18T12:08:17.876000,2023-10-18T12:08:17.876000
industria carpinteria aluminio,Alumiplaya,AV,Avenida,Barranco De Las Torres,0,38677,38001,Adeje,P I La Atalaya,,,922711330.0,922782983.0,-16.74327987,28.12915018,2017-02-15T11:40:07.893000,2017-03-10T09:05:18.142000
industria carpinteria aluminio,Aluteide,Cr,Carretera,General TF 5 Norte,sn,38441,38018,La Guancha,Santa Catalina,www.aluteide.es,info@aluteide.es,922350450.0,,-16.65800388,28.39507446,2016-05-09T12:45:15.374000,2023-10-18T14:04:54.665000
industria hosteleria,Alvarez Tenerife,CR,Carretera,Provincial TF 217,145,38399,38039,Santa Úrsula,Cuesta de la Villa,www.hoalve.es,comercial@alvareztenerife.com,922304910.0,,-16.50252822,28.41933506,2016-05-09T12:45:15,2018-04-10T14:32:20.221000
mantenimiento reparacion industrial,Alvasagara,CL,Calle,Santa Ana,48,38450,38015,Garachico,,,,922831040.0,,-16.76581522,28.37177573,2016-05-09T12:45:15.374000,2018-05-09T10:55:56.861000
industria alimentacion,Alzamar,PG,Polígono,Industrial Valle de Guimar,0,38509,38011,Candelaria,PG GUIMAR MZ 11 PARC 1,www.alzamar.com,alzamartf@alzamar.com,922583199.0,922956284.0,-16.36905177,28.33921826,2016-05-09T12:45:15.374000,2016-11-09T09:37:12.779000
industria construccion,Amarey Construcciones,CL,Calle,Los Gofiones,16,38280,38046,Tegueste,,,,,,-16.3443029,28.52347764,2016-05-09T12:45:15.374000,2016-05-24T09:53:31.081000
industria automocion taller,Ampycar,CL,Calle,Agustin de Bethencourt,14,38300,38026,La Orotava,,,,,,-16.52436331,28.38301593,2016-05-09T12:45:15.374000,2015-08-04T13:30:57.348000
industria automocion taller,AMR Sport Car Wash,CL,Calle,Manuel Bello Ramos,21,38670,38001,Adeje,,,,922781810.0,,-16.72690152,28.11939421,2016-05-09T12:45:15.374000,2016-07-04T12:34:55.370000
industria construccion,Andamios Canarias,CL,Calle,Cigarrillos,0,38107,38038,Santa Cruz de Tenerife,Pg El Pilar,www.andamioscanarias.com,info@andamioscanarias.com,922626873.0,922622503.0,-16.31708798,28.42787983,2016-05-09T12:45:15.374000,2016-11-09T09:37:12.779000
industria construccion,Andamios Canarios,CL,Calle,Orquidea,15,38107,38038,Santa Cruz de Tenerife,Pg El Pilar,www.andamioscanarias.com,info@andamioscanarias.com,922626873.0,922622503.0,-16.32014937,28.42545472,2016-05-09T12:45:15.374000,2016-06-07T14:57:00.068000
industria automocion taller,Andres Sport,CM,Camino,El Callejon,104,38240,38023,La Laguna,Punta del Hidalgo,www.andressport.es,andressport@hotmail.com,922157878.0,,-16.32190394,28.56668227,2016-05-09T12:45:15.374000,2017-06-13T09:19:15.097000
industria construccion,Anfrabar,PG,Polígono,Industrial Valle de Guimar,0,38509,38004,Arafo,PG GUIMAR MZ E PARC 1,,,922626304.0,,-16.36879553,28.330865,2016-05-09T12:45:15.374000,2018-05-24T17:22:06.194000
industria almacen deposito,Antoine Shoes Almacen,CL,Calle,Puntagorda,0,38108,38023,La Laguna,P I Los Majuelos Edificio Multiusos,www.carolinaboix.com,lopd@carolinaboix.com,922823006.0,922310363.0,-16.30077972,28.45896249,2017-02-15T11:40:07.893000,2017-03-10T09:05:18.142000
industria otro tipo,Antonio Afonso,CL,Calle,El Timple,13,38434,38022,Icod de los Vinos,Pg Las Almenas,www.antonioafonso.com,antonioafonso@antonioafonso.com,922812394.0,922121110.0,-16.69377849,28.38060168,2016-05-09T12:45:15.374000,2016-05-24T15:08:43.893000
industria otro tipo,Antonio Afonso,CL,Calle,El Timple,15,38434,38022,Icod de los Vinos,Pg Las Almenas,www.antonioafonso.com,antonioafonso@antonioafonso.com,922812394.0,922121110.0,-16.69348277,28.38073475,2016-05-09T12:45:15.374000,2016-05-24T15:08:43.893000
industria construccion,Antonio Suarez Baute e Hijos,CL,Calle,Infanta Elena,30,38632,38006,Arona,Pg Cho,www.antoniosuarezbauteehijos.com,suarezbaute@gmail.com,922733161.0,922739614.0,-16.65326926,28.04988081,2016-05-09T12:45:15.374000,2016-02-18T10:32:45.109000
industria construccion,Antonio Suarez Baute e Hijos,AU,"Autopista, autovía",TF 5 Norte,0,38340,38043,Tacoronte,Pg Los Naranjeros II,,,658797911.0,,-16.38900454,28.48622707,2016-05-09T12:45:15.374000,2017-10-23T10:39:57.743000
industria construccion,Antonio Suarez Baute e Hijos,CL,Calle,Levante,42,38632,38006,Arona,Pg Cho,,,922733161.0,0.0,-16.65100951,28.05031393,2016-05-09T12:45:15.374000,2016-02-18T10:32:45.109000
industria construccion,Antonio Suarez Baute e Hijos,CL,Calle,Infanta Elena,0,38632,38006,Arona,Pg Cho,www.antoniosuarezbauteehijos.com,suarezbaute@gmail.com,922733161.0,922739614.0,-16.65373248,28.04998752,2016-05-09T12:45:15.374000,2016-11-09T09:37:12.779000
industria construccion,Antonio Suarez Baute e Hijos,CL,Calle,Infanta Elena,31,38632,38006,Arona,Pg Cho,www.antoniosuarezbauteehijos.com,suarezbaute@gmail.com,922733161.0,922739614.0,-16.65340877,28.04987617,2016-05-09T12:45:15.374000,2016-02-18T10:32:45.109000
industria construccion,Antonio Suarez Baute e Hijos,CL,Calle,Levante,8,38632,38006,Arona,Pg Cho,www.antoniosuarezbauteehijos.com,suarezbaute@gmail.com,922733161.0,922739614.0,-16.65343915,28.05020157,2016-05-09T12:45:15.374000,2016-02-18T10:32:45.109000
industria cerrajeria,Antonio y Alis,CR,Carretera,General TF 342 La Orotava La Guancha,25,38428,38034,San Juan de la Rambla,,,cerrajeriaantonioyalis@hotmail.com,922360460.0,,-16.636604,28.37758099,2016-05-09T12:45:15.374000,2015-11-06T14:12:09.511000
industria automocion taller,Aparcamientos y Servicios Ofra,AV,Avenida,Principes de España,8,38009,38038,Santa Cruz de Tenerife,Ofra,,,922232719.0,,-16.28088135,28.45624795,2016-05-09T12:45:15.374000,2015-08-04T10:30:50.252000
industria hosteleria,Apex D Nawalrai,CL,Calle,La Campana,0,38109,38032,El Rosario,PI La Campana San Isidro,,,922682017.0,,-16.31832003,28.41768921,2017-02-15T11:40:07.893000,2017-06-28T12:03:36.848000
industria automocion,APPlus,Cr,Carretera,La Zamora,,38419,38031,Los Realejos,,,,,,-16.57604177,28.38445606,2023-10-18T12:08:17.876000,2023-10-18T12:08:17.876000
industria automocion,Applus Iteuve,CL,Calle,Santa Amelia,0,38108,38023,La Laguna,Z I Las Torres De Taco,www.applusiteuve.com,,622137040.0,,-16.29620579,28.45130781,2017-02-15T11:40:07.893000,2017-03-24T09:02:10.405000
industria automocion,Applus Iteuve,CL,Calle,Bentinerfe,42,38677,38001,Adeje,P I La Atalaya,www.applusiteuve.com,,902932800.0,,-16.74077213,28.12978014,2017-02-15T11:40:07.893000,2017-03-24T09:02:10.405000
industria automocion,Applus Iteuve,CL,Calle,Tenbel,0,38639,38035,San Miguel,P I Las Chafiras,www.applusiteuve.com,itvsanmiguel@appluscorp.com,922735088.0,922735184.0,-16.6175425,28.04848164,2017-02-15T11:40:07.893000,2017-03-24T09:02:10.405000
industria construccion,Aqualux Spas,CL,Calle,Daniel Feo Feo,5,38639,38035,San Miguel,P I Las Chafiras,www.aqualuxspas.eu,info@aqualuxspas.eu,922736944.0,922733366.0,-16.61935393,28.04946345,2017-02-15T11:40:07.893000,2017-02-16T13:51:26.067000
industria carpinteria aluminio,AR Fabrica Aluminio,CL,Calle,Jose Antonio Bacallado,13,38290,38032,El Rosario,La Esperanza,,,922548721.0,,-16.36551769,28.45160896,2016-05-09T12:45:15.374000,2015-08-04T10:49:35.113000
industria cerrajeria,Arafoil,PJ,"Pasaje, paraje",Acosta,15,38350,38043,Tacoronte,El Cantillo,,,922513054.0,,-16.40402181,28.48016247,2016-05-09T12:45:15.374000,2015-08-04T13:42:46.792000
industria automocion taller motos,Aranzazu Moto Bike,CR,Carretera,General TF 312 Puerto Cruz Las Arenas,75,38400,38028,Puerto de la Cruz,La Asomada,,,922375102.0,922372175.0,-16.54901558,28.40325293,2016-05-09T12:45:15.374000,2016-11-24T11:55:07.514000
industria hosteleria,Arayra Hosteleria,CM,Camino,San Francisco de Paula TF 265,98,38291,38023,La Laguna,Los Baldios,es-es.facebook.com/arayra.hosteleria,arayra@hotmail.com,922257581.0,922257491.0,-16.32444259,28.47218411,2016-05-09T12:45:15.374000,2016-11-15T09:32:52.861000
industria automocion repuestos accesorios,ARC Neumaticos,CR,Carretera,General TF 28 Sur,13,38620,38035,San Miguel,,,arcneumaticos@hotmail.com,619843096.0,,-16.61331608,28.10238499,2016-05-09T12:45:15.374000,2023-04-25T13:39:49.358000
industria carpinteria aluminio,Arco Iris Aluminios,CL,Calle,San Agustin,6,38350,38043,Tacoronte,Bajo,,,922561432.0,,-16.41097476,28.48125112,2018-05-08T09:47:45.961000,2018-05-08T09:47:45.961000
industria construccion,Arecio de la Rosa Sucesores Juan Cabrera,CM,Camino,Principal Jagua,0,38120,38038,Santa Cruz de Tenerife,Pg Jagua,,aprecio@a.1we.es,922242939.0,922282817.0,-16.20722911,28.4992056,2016-05-09T12:45:15.374000,2016-11-09T09:37:12.779000
industria construccion,Argefam Construcciones,CR,Carretera,España TF 217,26,38390,38039,Santa Úrsula,Ed El Dorado Pl 1 Of B,,argefam@gmail.com,922301814.0,,-16.48998466,28.42527738,2016-05-09T12:45:15,2018-04-10T14:32:20.221000
industria automocion taller,Argo Tenerife,CL,Calle,Plasencia,169,38639,38035,San Miguel,Z I Llano Del Camello,,tenerifeargo@gmail.com,922101509.0,922101509.0,-16.62272977,28.05230689,2017-02-15T11:40:07.893000,2017-02-16T13:51:26.067000
industria naval,Arguion Yacht,PG,Polígono,Industrial de Granadilla,0,38612,38017,Granadilla de Abona,PG DE GRANADILLA PARC 47,www.arguion.es,arguion@arguion.es,922778092.0,922778093.0,-16.50962335,28.08517583,2016-05-09T12:45:15.374000,2016-11-09T09:37:12.779000
industria construccion,Aridos y Hormigones Gomera,PG,Polígono,Industrial Valle de Guimar,0,38509,38004,Arafo,PG GUIMAR MZ 1 PARC 6 Y 7,www.aridosherreracom,administracion@aridosherreracom,922539302.0,922539635.0,-16.37289197,28.33455437,2016-05-09T12:45:15.374000,2018-05-24T17:22:06.194000
industria construccion,Aridos y Hormigones Gomera,PG,Polígono,Industrial Valle de Guimar,0,38509,38004,Arafo,PG GUIMAR MZ 1 PARC 5 6 y 7 ,www.construccionesdarias.com,ahg@contruccionesdarias.com,922503349.0,922506639.0,-16.37290186,28.33432172,2016-05-09T12:45:15.374000,2018-05-24T17:22:06.194000
industria construccion,Aridos y Hormigones Gomera,PG,Polígono,Industrial Valle de Guimar,0,38509,38004,Arafo,PG GUIMAR MZ 1 PARC 13B 14A Y 14-B,www.construccionesdarias.com,ahg@contruccionesdarias.com,922503349.0,922506639.0,-16.37213978,28.33381147,2016-05-09T12:45:15.374000,2018-05-24T17:22:06.194000
industria automocion taller,Arimotor Tenerife Nissan,CL,Calle,Puntagorda,1,38108,38023,La Laguna,P I Los Majuelos,www.arimotortf.com,tallerindustrial@arimotortf.com,922820242.0,922822129.0,-16.29945037,28.45884326,2017-02-15T11:40:07.893000,2017-02-16T13:51:26.067000
industria automocion taller,Arimotor Tenerife Nissan,CL,Calle,Tijarafe,0,38108,38023,La Laguna,P I Los Majuelos,www.arimotortf.com - www.red.nissan.es,jaherrera@arimotortf.com,922236500.0,922595405.0,-16.29928496,28.46017705,2017-02-15T11:40:07.893000,2017-03-10T09:05:18.142000
industria automocion taller,Arimotor Tenerife Nissan,CL,Calle,Puntagorda,0,38108,38023,La Laguna,P I Los Majuelos,www.arimotortf.com - www.red.nissan.es,jaherrera@arimotortf.com,922820242.0,922595405.0,-16.29928496,28.46017705,2017-02-15T11:40:07.893000,2017-03-10T09:05:18.142000
industria alimentacion,Armando Santana,PG,Polígono,Industrial Valle de Guimar,0,38509,38004,Arafo,PG GUIMAR MZ 5 PARC 37,www.armando-santana.com,assa@armando-santana.com,922583067.0,922583064.0,-16.37014527,28.33431049,2016-05-09T12:45:15.374000,2016-11-09T09:37:12.779000
industria alimentacion,Arona Dried And Frozen Food,CL,Calle,Seguidillas,0,38639,38035,San Miguel,Z I Llano Del Camello,,aronadryandfrozenfoods@hotmail.com,922775584.0,,-16.61997714,28.05422779,2017-02-15T11:40:07.893000,2017-03-10T09:05:18.142000
industria automocion taller,Artemio Gonzalez Castro,CL,Calle,Fernando Arozena Quinterio,1,38009,38038,Santa Cruz de Tenerife,P I Costa Sur Buenos Aires,,tallerartemio@hotmail.com,922224244.0,922213694.0,-16.26816106,28.45473855,2017-02-15T11:40:07.893000,2017-06-28T10:30:29.987000
industria automocion taller,Artemio Gonzalez Castro,CL,Calle,Fernando Arozena Quinterio,1,38009,38038,Santa Cruz de Tenerife,P I Costa Sur Buenos Aires,,tallerartemio@telefonica.net,922224244.0,922213694.0,-16.26816106,28.45473855,2017-02-15T11:40:07.893000,2017-06-28T10:30:29.987000
industria reprografia y artes gráficas,Artentodo,AV,Avenida,Los Menceyes,260,38320,38023,La Laguna,,www.artentodo.com,artentodocanarias@gmail.com,922083690.0,,-16.29108648,28.46901619,2016-05-09T12:45:15,2017-10-31T13:08:08
imprenta reprografia,Artes Drago,CL,Calle,Simon Bolivar,40,38007,38038,Santa Cruz de Tenerife,Barrio Cruz del Señor Ed Esmeralda,,artesdrago@artesdrago.com,922200185.0,922229831.0,-16.272993,28.46205099,2016-05-09T12:45:15.374000,2015-08-04T10:37:38.763000
imprenta reprografia,Artes Graficas Horizonte,Cr,Carretera,General TF 333 La Zamora,112,38419,38031,Los Realejos,,,,922341436.0,,-16.56776593,28.38586658,2016-05-09T12:45:15.374000,2023-10-18T14:04:54.665000
industria construccion,Arvaya,PG,Polígono,Industrial Valle de Guimar,0,38509,38011,Candelaria,PG GUIMAR MZ 8 PARC 12,www.arvaya.com,administracion@arvaya.com,922504445.0,922503913.0,-16.36939375,28.34450058,2016-05-09T12:45:15.374000,2018-05-24T17:22:06.194000
industria construccion,Arvaya,PG,Polígono,Industrial Valle de Guimar,0,38509,38011,Candelaria,PG GUIMAR MZ 8 PARC 12,www.arvaya.com,administracion@arvaya.com,922504445.0,922503913.0,-16.36939343,28.34430288,2016-05-09T12:45:15.374000,2016-11-09T09:37:12.779000
industria construccion,Arvaya,PG,Polígono,Industrial Valle de Guimar,0,38509,38011,Candelaria,PG GUIMAR MZ 8 PARC 9,www.arvaya.com,administracion@arvaya.com,922504445.0,922503913.0,-16.36956361,28.34438113,2016-05-09T12:45:15.374000,2018-05-24T17:22:06.194000
industria construccion,Ascanio Quimica,PG,Polígono,Industrial Valle de Guimar,0,38509,38004,Arafo,PG GUIMAR MZ 7 PARC 1,www.ascanioquimicacom,info@ascanioquimicacom,922503150.0,922503662.0,-16.3709307,28.33937757,2016-05-09T12:45:15.374000,2016-11-09T09:37:12.779000
industria construccion,Ascanio Quimica,PG,Polígono,Industrial Valle de Guimar,0,38509,38011,Candelaria,PG GUIMAR MZ 7 PARC 2,,,922503150.0,922503662.0,-16.37040536,28.33935845,2016-05-09T12:45:15.374000,2016-11-09T09:37:12.779000
industria construccion,Ascensores Cosecan,CL,Calle,Subida Al Mayorazco,7,38110,38038,Santa Cruz de Tenerife,P I El Mayorazgo,www.orona.es,cosecan@terra.es,922826208.0,922826205.0,-16.28252827,28.44434496,2017-02-15T11:40:07.893000,2017-03-29T07:45:23.135000
industria construccion,Ascensores Lift Corp,AV,Avenida,Los Majuelos,71,38107,38038,Santa Cruz de Tenerife,La Gallega,,,922098068.0,,-16.31975434,28.4347423,2016-05-12T08:35:31.327000,2016-11-28T13:05:27.424000
industria construccion,Ascensores Teide,CL,Calle,Siempreviva,66,38107,38038,Santa Cruz de Tenerife,La Gallega,www.ascensoresteide.es,info@ascensoresteide.es,922035370.0,822019921.0,-16.32001526,28.43259829,2016-05-09T12:45:15.374000,2016-06-16T09:21:53.322000
industria construccion,Asfaltos Canarios ASCASA 2016,PG,Polígono,Industrial Valle de Guimar,0,38509,38004,Arafo,PG GUIMAR MZ 6 PARC 13 y 12B,www.ascasa.net,administracion@ascasa.net,922501668.0,922502827.0,-16.36924809,28.33602754,2016-05-09T12:45:15.374000,2018-05-25T11:40:04.365000
industria construccion,Asfaltos San Jose,CL,Calle,San Jose,24,38370,38025,La Matanza,,,,,,-16.4515236,28.45224138,2016-05-09T12:45:15.374000,2015-11-25T12:33:45.267000
industria construccion,Asfaltos y Obras Tafuriaste ASYOTA,PG,Polígono,Industrial La Gañania,0,38419,38031,Los Realejos,PG La Gañania,www.asyota.com,asyota@gmail.com,922383612.0,922380998.0,-16.57524387,28.38136778,2016-05-09T12:45:15.374000,2016-11-09T09:37:12.779000
industria construccion,Asfaltos y Obras Tafuriaste ASYOTA,CL,Calle,Tafuriaste,11,38400,38028,Puerto de la Cruz,Pg Las Arenas,www.asyota.com,info@asyota.com,922383612.0,922380998.0,-16.54440253,28.39930301,2016-05-09T12:45:15.374000,2016-08-01T10:32:08.445000
industria construccion,Asfaltos y Obras Tafuriaste ASYOTA,CL,Calle,Tafuriaste,11,38400,38028,Puerto de la Cruz,Pg Las Arenas,www.asyota.com,info@asyota.com,922383612.0,922380998.0,-16.54426713,28.39931517,2016-05-09T12:45:15.374000,2016-06-23T10:14:39.701000
industria construccion,Astral Pool,AU,"Autopista, autovía",TF 5 Norte,45,38340,38043,Tacoronte,Pg Los Naranjeros II,www.astrapool.com,mtorres@astralexport.com,922572312.0,922571812.0,-16.38819926,28.48586874,2016-05-09T12:45:15.374000,2017-10-23T10:39:57.743000
industria construccion,Astral Pool,AU,"Autopista, autovía",TF 5 Norte,45,38340,38043,Tacoronte,Pg Los Naranjeros II,www.astrapool.com,mtorres@astralexport.com,922572312.0,922571812.0,-16.3881504,28.48573,2016-05-09T12:45:15.374000,2017-10-23T10:39:57.743000
industria automocion taller,Atelex,CL,Calle,J Gutenberg,0,38109,38032,El Rosario,PI La Campana San Isidro,www.atelex.com,tenerife@atelex.com,922684861.0,922684469.0,-16.3192593,28.41738851,2017-02-15T11:40:07.893000,2017-06-28T12:03:36.848000
industria automocion taller,Atg Garage,AV,Avenida,Modesto Hernandez Gonzalez,11,38639,38035,San Miguel,P I Las Chafiras,,,922736262.0,,-16.61247941,28.04888217,2017-02-15T11:40:07.893000,2017-02-16T13:51:26.067000
industria alimentacion panaderia pasteleria,Atlantic Pan,CL,Calle,Plasencia,34,38639,38035,San Miguel,Z I Llano Del Camello,,,922736012.0,,-16.61510855,28.05427361,2017-02-15T11:40:07.893000,2017-02-16T13:51:26.067000
industria automocion taller,Atlantico Autocentros,CL,Calle,Gestur Tenerife,0,38109,38032,El Rosario,PI La Campana San Isidro,www.atlanticoautocentros.com,info@atlanticoautocentros.com,922626602.0,922623549.0,-16.31500954,28.41340085,2017-02-15T11:40:07.893000,2023-04-25T13:36:40.782000
industria automocion taller,Atlantico Autocentros,CR,Carretera,General TF 66 Guaza Valle San Lorenzo,74,38626,38006,Arona,Valle San Lorenzo Cruz del Guanche,www.atlanticoautocentros.com,vallesanlorenzo@atlanticoautocentros.com,922767356.0,,-16.65916089,28.08368891,2016-05-09T12:45:15.374000,2015-08-04T12:31:10.347000
industria automocion taller,Atlantico Autocentros,CR,Carretera,General TF 152 Norte,19,38206,38023,La Laguna,San Lazaro,www.atlanticoautocentros.com,lalaguna@neuatlan.com,922633497.0,,-16.33050382,28.48998055,2016-05-09T12:45:15.374000,2015-08-03T12:27:40.037000
industria automocion taller,Atlantico Autocentros La Orotava,CL,Calle,El Baden,33,38312,38026,La Orotava,P I San Jeronimo,www.atlanticoautocentros.com,laorotava@atlanticoautocentros.com,922322020.0,922322016.0,-16.54533486,28.39685923,2017-02-15T11:40:07.893000,2017-02-16T13:51:26.067000
industria construccion,Atlas Canarias,CL,Calle,Subida Al Mayorazco,3,38110,38038,Santa Cruz de Tenerife,P I El Mayorazgo Edificio Atlas Copco,www.atlascopco.com,info@grupoatlas.org,922202076.0,,-16.28235841,28.44340822,2017-02-15T11:40:07.893000,2017-02-16T13:51:26.067000
industria construccion,ATN Servicios Tenerife,AV,Avenida,Bulevar Chajofe,6,38650,38006,Arona,Los Cristianos,www.atntenerife.com,atn@atnservicios.com,922793999.0,922750583.0,-16.71441013,28.05398544,2016-05-09T12:45:15.374000,2015-08-04T12:41:33.715000
industria automocion taller,Atomica Motor,CL,Calle,Uruguay,27,38639,38035,San Miguel,P I Las Chafiras,www.atomicamotor.com,info@atomicamotor.com,922735822.0,,-16.61304862,28.04861539,2017-02-15T11:40:07.893000,2017-02-16T13:51:26.067000
industria hosteleria,Atteyco Hosteleria,CL,Calle,Granados,14,38007,38038,Santa Cruz de Tenerife,Barrio Cruz del Señor Ed Campos,,,,,-16.272165,28.46294999,2016-05-09T12:45:15.374000,2017-06-13T12:09:02.895000
industria automocion taller electricidad,Audiomecanica,CL,Calle,Pablo Garcia Garcia,7,38412,38031,Los Realejos,Realejo Alto,,,922345315.0,,-16.58886655,28.37957548,2016-05-09T12:45:15.374000,2015-08-04T13:17:32.343000
industria automocion repuestos accesorios,Auteide,CL,Calle,Albañileria,7,38312,38026,La Orotava,P I San Jeronimo,www.auteide.com,,922323337.0,922325880.0,-16.54103135,28.39452761,2017-02-15T11:40:07.893000,2017-02-16T13:51:26.067000
industria automocion taller electricidad,Auto Electro Sprint,CR,Carretera,General TF 342 La Orotava La Guancha,7,38428,38034,San Juan de la Rambla,,,autoelectrosprint@hotmail.com,922350243.0,,-16.646618,28.37488199,2016-05-09T12:45:15,2023-04-25T13:35:37.549000
industria automocion taller electricidad,Auto Electronica Sport AES,CL,Calle,Hero,51,38008,38038,Santa Cruz de Tenerife,Bo Salud,,,607581314.0,,-16.27345392,28.4693033,2016-05-09T12:45:15,2018-03-05T07:40:22.924000
industria automocion taller,Auto Frenos Teide,CL,Calle,Claudio Sarmiento,4,38009,38038,Santa Cruz de Tenerife,Vuelta los Pajaros,,,922645154.0,,-16.27662298,28.46426845,2016-05-09T12:45:15.374000,2015-08-04T10:30:50.252000
industria automocion grua,Auto Gruas Javier,CL,Calle,Chafira,50,38110,38038,Santa Cruz de Tenerife,Z I Las Moraditas,www.gruasjaviertenerife.com,autogruasjavier@gmail.com,922662913.0,922312923.0,-16.28916032,28.44349314,2017-02-15T11:40:07.893000,2017-03-15T09:14:18.896000
industria automocion grua,Auto Gruas Jose,CL,Calle,Lomo Piedras,118,38359,38041,El Sauzal,Ravelo,,,922584557.0,,-16.41938013,28.46013157,2016-05-09T12:45:15.374000,2015-08-04T13:40:07.951000
industria automocion repuestos accesorios,Auto Marrero,AV,Avenida,Mencey de Abona,11,38600,38017,Granadilla de Abona,,,automarrero@gmail.com,922770252.0,,-16.578031,28.11824219,2016-05-09T12:45:15.374000,2023-04-26T07:51:47.731000
industria automocion taller,Auto Mecanica,CL,Calle,Los Hoyos,4,36680,38019,Guía de Isora,Guia de Isora,,cbautomecanica@hotmail.com,922850045.0,,-16.78284213,28.21430293,2016-05-09T12:45:15.374000,2019-04-12T11:56:20.113000
industria automocion taller,Auto Parabrisas,CL,Calle,Fray Luis de Granada,46,38009,38038,Santa Cruz de Tenerife,Chamberi,,,922228444.0,922227944.0,-16.27437833,28.45000153,2016-05-09T12:45:15.374000,2015-08-04T10:30:50.252000
industria automocion repuestos accesorios,Auto Repuestos Yballa,CL,Calle,Santa Amelia,1,38108,38023,La Laguna,Z I Las Torres De Taco Edificio Discovery Nave 3,,,922612703.0,922616645.0,-16.29441841,28.45201107,2017-02-15T11:40:07,2017-02-16T13:51:26.067000
industria automocion taller,Auto Servicio Alcala,AV,Avenida,Los Pescadores,7,38686,38019,Guía de Isora,Alcala,,autoservialcala@hotmail.es,922865435.0,,-16.82659399,28.19979545,2016-05-09T12:45:15,2019-04-12T11:56:20.113000
industria automocion taller,Auto Servicio Fernando,CL,Calle,Felipe Gorrin,4,38686,38019,Guía de Isora,Cueva del Polvo,,,922861486.0,,-16.83423281,28.22612437,2017-02-23T10:03:32.432000,2019-04-12T11:56:20.113000
industria automocion taller,Auto Servicio Ricana,CL,Calle,La Pinta,7,38687,38019,Guía de Isora,Playa de San Juan,,arca-automoviles@hotmail.com,922866411.0,,-16.81680172,28.18276876,2016-05-09T12:45:15.374000,2019-04-12T11:56:20.113000
industria automocion taller,Auto Sport Norte ASN,CR,Carretera,General TF 333 La Zamora,40,38419,38031,Los Realejos,PG San Benito,,,922346937.0,,-16.57504137,28.38456548,2016-05-09T12:45:15.374000,2023-10-18T14:38:49.207000
industria automocion taller,Auto Sport Tito,CR,Carretera,General TF 28 Sur,26,38626,38006,Arona,Valle San Lorenzo,,autosport-tito@hotmail.com,666797940.0,922765651.0,-16.65046541,28.09231967,2016-05-09T12:45:15.374000,2023-04-26T07:55:52.962000
industria automocion taller,Auto Taller Kiko ATK,CM,Camino,La Villa,142,38203,38023,La Laguna,El Coromoto,,,922253235.0,,-16.33334276,28.48461745,2016-05-09T12:45:15.374000,2016-06-23T10:14:39.701000
industria automocion repuestos accesorios,Autoagro,CR,Carretera,General TF 152 Norte,264,38350,38043,Tacoronte,El Cantillo,,,922562959.0,,-16.39989862,28.48088359,2016-05-09T12:45:15.374000,2016-08-01T10:42:49.402000
industria automocion taller,Autocenter San Isidro,AV,Avenida,Santa Cruz,166,38611,38017,Granadilla de Abona,San Isidro,www.autocentersanisidro.com,cliente@autocentersanisidro.com,922394031.0,,-16.556932,28.07347999,2016-05-09T12:45:15.374000,2023-04-26T07:55:52.962000
industria automocion taller,Autocentro Los Majuelos,CL,Calle,Volcan Elena,8,38108,38023,La Laguna,Los Majuelos,,,655987938.0,,-16.3023698,28.45888189,2016-05-09T12:45:15.374000,2017-10-30T12:13:53.927000
industria automocion taller,Autochapa Santa Catalina,PS,Paseo,La Centinela,2,38430,38022,Icod de los Vinos,,www.autochapasantacatalina.com,as@autochapasantacatalina.com,922816006.0,0.0,-16.71011407,28.37323038,2016-05-09T12:45:15.374000,2016-06-23T10:14:39.701000
industria automocion taller electricidad,Autoelectricidad JR,CM,Camino,Del Cementerio,,36680,38019,Guía de Isora,,,barajo1234@gmail.com,922850680.0,,-16.77441399,28.20789589,2019-04-12T16:38:45.443000,2019-04-12T16:38:45.443000
industria automocion repuestos accesorios,Autofiltros,CL,Calle,Puerto Rico,1,38009,38038,Santa Cruz de Tenerife,Buenos Aires,,,922226436.0,922203208.0,-16.26680628,28.45532679,2016-05-09T12:45:15.374000,2016-08-01T10:42:49.402000
industria automocion taller,Autoforum Tenerife,CR,Carretera,General TF 272 El Sobradillo,108,38107,38038,Santa Cruz de Tenerife,El Sobradillo,,,922618596.0,,-16.32262363,28.44003098,2016-05-09T12:45:15.374000,2017-06-28T11:21:39.209000
industria automocion taller,Autofrenos La Paz,CR,Carretera,General TF 28 Sur,154,38107,38038,Santa Cruz de Tenerife,El Chorrillo,,,922623541.0,,-16.31898981,28.4231469,2016-05-09T12:45:15,2016-08-11T14:06:23.933000
industria automocion grua,Autogruas Javier,CL,Calle,Chafira,50,38110,38038,Santa Cruz de Tenerife,Las Moraditas de Taco,www.gruasjaviertenerife.com,autogruasjavier@gmail.com,922662913.0,922619883.0,-16.28948119,28.44359666,2016-05-09T12:45:15.374000,2017-03-15T09:14:18.896000
industria automocion grua,Autogruas Juan,CL,Calle,Hermano Pedro,4,38628,38035,San Miguel,Aldea Blanca,www.autogruasjuan.com,gruasjuan2008@hotmail.es,922167342.0,,-16.62530121,28.05841293,2016-05-09T12:45:15,2017-06-02T14:19:52.905000
industria automocion taller,Autoinsular,CL,Calle,Ibaute,28,38111,38038,Santa Cruz de Tenerife,Acoran Ur Brisamar,www.autoinsular.com,,922204949.0,922200415.0,-16.3053785,28.42055106,2016-07-29T09:09:55.181000,2016-07-29T09:09:55.181000
industria automocion taller,Autolavado ,CL,Calle,Calvario,18,38270,38023,La Laguna,Valle de Guerra,,,,,-16.38949801,28.51845721,2016-05-09T12:45:15.374000,2015-08-26T11:05:24.077000
industria automocion,Autolavado Atomico,AV,Avenida,Santa Cruz,85,38500,38020,Güimar,,,,922510321.0,,-16.405584,28.32108499,2016-05-09T12:45:15.374000,2015-08-04T10:57:05.185000
industria automocion taller,Autolavado Barranco Grande,CR,Carretera,General TF 28 Sur,66,38107,38038,Santa Cruz de Tenerife,Barranco Grande,,,922615339.0,,-16.30498639,28.43903772,2016-05-09T12:45:15,2016-08-02T10:02:07.004000
industria automocion taller,Autolavado Chasna Sport,CL,Calle,Finca Pastor,3,38390,38039,Santa Úrsula,,,,922337922.0,,-16.48532471,28.4275669,2016-05-09T12:45:15.374000,2015-08-04T13:34:28.221000
industria automocion taller,Autolavado Dominguez,CL,Calle,Volcan Krakatoa,4,38108,38023,La Laguna,Las Chumberas,,,922824395.0,,-16.30367654,28.46157427,2016-05-09T12:45:15.374000,2016-06-23T10:14:39.701000
industria automocion,Autolavado El Gomatico,CL,Calle,Jose Miguel Galvan Bello,20,38631,38006,Arona,Las Galletas,,,666926791.0,0.0,-16.6556151,28.00695208,2016-05-09T12:45:15.374000,2015-08-04T12:36:55.984000
industria automocion,Autolavado Guimar,CL,Calle,Vera del Barranco,8,38500,38020,Güimar,,,joselavadoguimar@hotmail.com,922512556.0,,-16.412853,28.31356599,2016-05-09T12:45:15.374000,2016-06-23T10:14:39.701000
industria automocion taller,Autolavado Impecable,AV,Avenida,Aguilar y Quesada,2,38400,38028,Puerto de la Cruz,CC Piramides de Martianez Lc ST03,,,922330608.0,,-16.54278128,28.41557574,2016-09-29T13:17:47.946000,2016-11-25T13:45:16.810000
industria automocion taller,Autolavado Isla Baja,Cr,Carretera,General TF 42 Icod Buenavista,15,38480,38010,Buenavista del Norte,Los Cabildos,,,658281255.0,,-16.84540949,28.36931291,2023-10-18T12:08:17.876000,2023-10-18T12:08:17.876000
industria automocion taller,Autolavado Jomar,CM,Camino,Tamaragua,16,38296,38023,La Laguna,San Bartolome de Geneto,,,630239612.0,,-16.30908158,28.46112122,2016-05-23T09:06:55.987000,2016-05-23T09:06:55.987000
industria automocion,Autolavado Jonacar,CR,Carretera,Vieja TF 213,33,38389,38051,La Victoria,,,,600050560.0,,-16.4795,28.42897599,2016-05-09T12:45:15.374000,2016-06-23T10:14:39.701000
industria automocion taller,Autolavado La Atalaya,AV,Avenida,Barranco De Las Torres,0,38677,38001,Adeje,P I La Atalaya,,,0.0,,-16.74112053,28.12498069,2017-02-15T11:40:07.893000,2017-03-10T09:05:18.142000
industria automocion,Autolavado La Rotonda,CL,Calle,Diecinueve de Marzo,9,38292,38046,Tegueste,Las Toscas,www.facebook.com/Autolavado-La-Rotonda,,922538292.0,,-16.3481,28.52407999,2016-05-09T12:45:15.374000,2017-06-05T07:17:29.509000
industria automocion taller,Autolavado Nonin,CL,Calle,Presidente Adolfo Suarez,39,38320,38023,La Laguna,La Cuesta Bo Obispado,,,922660745.0,,-16.29060909,28.46649899,2016-05-09T12:45:15.374000,2018-01-15T13:17:02.055000
industria automocion,Autolavado Playa,AV,Avenida,El Emigrante,13,38687,38019,Guía de Isora,Playa de San Juan,,guillerub@hotmail.com,656794724.0,922134222.0,-16.81819887,28.18264385,2016-05-09T12:45:15.374000,2019-04-12T11:56:11.551000
industria automocion,Autolavado Ray,CL,Calle,Madre del Agua,4,38611,38017,Granadilla de Abona,San Isidro,,,922393081.0,,-16.557435,28.07398699,2016-05-09T12:45:15.374000,2016-06-23T10:14:39.701000
industria automocion taller,Autolavado Santo Domingo,Av,Avenida,8 de Agosto,6,38441,38018,La Guancha,Santo Domingo,,,646747463.0,,-16.67001362,28.3901881,2016-12-12T14:12:58.762000,2023-10-18T14:04:54.665000
industria automocion,Autolavado Vielmax,CR,Carretera,General TF 152 Norte,360,38340,38043,Tacoronte,Pg Los Naranjeros II,www.autosvielmax.com,,922571434.0,,-16.39009956,28.4859472,2016-05-09T12:45:15.374000,2016-06-23T10:14:39.701000
industria automocion taller,Autolavados Oceano Las Chafiras,AV,Avenida,Lucio Diaz Flores Feo,11,38639,38035,San Miguel,Z I Llano Del Camello Estacion Servicio Oceano,,,603629182.0,,-16.61506995,28.05596648,2019-02-20T12:34:42.792000,2019-02-20T12:34:42.792000
industria automocion taller,Autolavados Rally Car,AV,Avenida,Maritima,25,38509,38011,Candelaria,Ed Alsaca Aparcamiento Publico,,,922517474.0,,-16.36589309,28.36257586,2016-10-05T07:44:55.508000,2018-06-22T12:03:04.919000
industria automocion taller,Autolavaito,AV,Avenida,Los Menceyes,166,38320,38023,La Laguna,La Higuerita,,,922657069.0,,-16.29782337,28.47047111,2016-05-09T12:45:15.374000,2015-08-04T10:33:10.329000
industria automocion taller,Automecanica Barroso,CR,Carretera,General TF 21 Cuesta de la Villa Granadilla,168,38310,38026,La Orotava,Barroso,,,922331615.0,,-16.51309594,28.3777458,2016-05-09T12:45:15,2017-05-25T09:07:48.460000
industria automocion taller,Automotor Canariasu Peugeot,CL,Calle,Ingenios Azucareros,4,38312,38026,La Orotava,P I San Jeronimo,www.automotor-canarias.com,venta.sanjeronimo@automotor/canaria.com,922209016.0,922326277.0,-16.54093565,28.39585049,2017-02-15T11:40:07.893000,2017-02-16T13:51:26.067000
industria automocion taller,Automotor Canariasu Peugeot Taller,AV,Avenida,Claudio Delgado Diaz,21,38639,38035,San Miguel,P I Las Chafiras,www.automotor-canarias.com,,922736339.0,922736336.0,-16.61701578,28.05001009,2017-02-15T11:40:07.893000,2017-02-16T13:51:26.067000
industria automocion taller,Automoviles 3000,CR,Carretera,General TF 42 Icod Buenavista,14,38479,38042,Los Silos,San Bernardo,,,922127187.0,922840567.0,-16.82983069,28.36646585,2016-05-09T12:45:15.374000,2017-07-20T12:02:42.972000
industria automocion repuestos accesorios,Automoviles Insulares,CL,Calle,Subida Al Mayorazco,36,38110,38038,Santa Cruz de Tenerife,P I El Mayorazgo,www.autoinsular.citoen.es,autoinsular@autoinsular.com,922204949.0,922201135.0,-16.28472838,28.44667865,2017-02-15T11:40:07.893000,2017-03-29T07:50:43.137000
industria automocion taller,Autopinturas Donate,CL,Calle,Las Folias,11,38390,38039,Santa Úrsula,Lc 17B,www.autopinturasdonate.com,info@autopinturasdonate.com,922301847.0,922301849.0,-16.49983514,28.42178589,2016-05-09T12:45:15.374000,2018-04-10T14:28:43.352000
industria automocion,Autopinturas Santa Ursula,CL,Calle,Alcalde Alejo Perez,5,38390,38039,Santa Úrsula,Ed M Victoria,,autopinturassantaursula@gmail.com,922301002.0,922302126.0,-16.48991163,28.4259377,2016-05-09T12:45:15.374000,2018-04-10T14:28:43.352000
industria automocion taller,Autopinturas Santa Ursula,RB,Rambla,Doctor Perez,24,38390,38039,Santa Úrsula,,,autopinturasantaursula@gmail.com,922301855.0,922302126.0,-16.48985883,28.42613958,2016-05-09T12:45:15.374000,2018-04-10T14:28:43.352000
industria automocion repuestos accesorios,Autorecambios Candido,CR,Carretera,Provincial TF 217,30,38390,38039,Santa Úrsula,,,arcandido@hotmail.com,922300930.0,,-16.49394516,28.42537035,2016-05-09T12:45:15.374000,2018-04-10T14:28:43.352000
industria automocion repuestos accesorios,Autorecambios Jerez,CL,Calle,Sargento Provisional,19,38010,38038,Santa Cruz de Tenerife,Ofra,,,922647911.0,922658141.0,-16.28686656,28.45256918,2016-05-09T12:45:15.374000,2017-02-20T12:26:08.444000
industria automocion repuestos accesorios,Autorepuestos,CR,Carretera,General TF 281 Subida Arafo,2,38509,38004,Arafo,El Carreton,,,,,-16.37679781,28.32962659,2016-05-17T15:04:54.244000,2016-08-29T13:23:45.409000
industria automocion repuestos accesorios,Autorepuestos Ayllon,AV,Avenida,Santa Cruz,149,38611,38017,Granadilla de Abona,San Isidro local 3,,,922390318.0,922390540.0,-16.556919,28.07434999,2016-05-09T12:45:15.374000,2016-08-01T10:42:49.402000
industria automocion repuestos accesorios,Autorepuestos Carlos,CL,Calle,Las Flores,19,38010,38038,Santa Cruz de Tenerife,Nuevo Obrero,,autorepuestoscarlos@ono.com,922033545.0,922647802.0,-16.28988862,28.44823232,2016-07-29T09:18:02.872000,2016-08-01T10:42:49.402000
industria automocion taller,Autorepuestos El Empalme,PS,Paseo,Canarina,7,38434,38022,Icod de los Vinos,,www.repuestoselempalme.com,auto@repuestoselempalme.com,922122149.0,0.0,-16.69810002,28.37632152,2016-05-09T12:45:15,2016-07-29T09:29:36.198000
industria automocion repuestos accesorios,Autorepuestos El Empalme,CR,Carretera,General TF 28 Sur,14,38108,38038,Santa Cruz de Tenerife,Barranco Grande,www.repuestoslempalme.com,auto@repuestoslempalme.com,822199900.0,,-16.30174452,28.44273959,2016-07-29T09:35:22.439000,2017-03-15T08:55:35.577000
industria automocion repuestos accesorios,Autorepuestos El Empalme,CL,Calle,Fundadores Cooperativa,34,38639,38035,San Miguel,Las Andoriñas Ed Achaman Lc 1,www.repuestoselempalme.com,auto@repuestoselempalme.com,922975330.0,,-16.61154673,28.05317334,2016-07-29T09:23:58.613000,2016-08-01T10:42:49.402000
industria automocion repuestos accesorios,Autorepuestos El Valle,AV,Avenida,Obispo Perez Caceres,37,38500,38020,Güimar,,,,,,-16.411268,28.31318899,2016-05-09T12:45:15.374000,2016-08-01T10:42:49.402000
industria automocion taller,Autorepuestos Fierra,CL,Calle,Chafira,9,38110,38038,Santa Cruz de Tenerife,Las Moraditas de Taco,www.suzukifierro.com,,922610002.0,,-16.28925064,28.44579718,2016-05-09T12:45:15,2017-03-15T09:14:18.896000
industria automocion repuestos accesorios,Autorepuestos GP,CL,Calle,La Entrada,8,38680,38019,Guía de Isora,,,,922850499.0,,-16.78141562,28.21164379,2016-05-09T12:45:15.374000,2016-08-01T10:42:49.402000
industria automocion repuestos accesorios,Autorepuestos Hernandez,AV,Avenida,Santa Cruz,10,38611,38017,Granadilla de Abona,San Isidro,,autorepuestoshdez@gmail.com,686601323.0,922770091.0,-16.563842,28.08368991,2016-05-09T12:45:15.374000,2017-04-26T09:47:56.729000
industria automocion repuestos accesorios,Autorepuestos Isora,CL,Calle,El Campo,6,38680,38019,Guía de Isora,,,,922850005.0,,-16.78003046,28.21193746,2016-05-09T12:45:15.374000,2019-03-22T10:14:18.455000
industria automocion repuestos accesorios,Autorepuestos Korea,CL,Calle,Anatolio De Fuentes Garcia,0,38009,38038,Santa Cruz de Tenerife,P I Costa Sur Buenos Aires,www.autorepuestoskorea.com,ventas@autorepuestoskorea.com,922222101.0,922206494.0,-16.27298368,28.44645783,2017-02-15T11:40:07.893000,2017-03-10T09:05:18.142000
industria automocion repuestos accesorios,Autorepuestos Kunsan,Cl,Calle,Los Barros,47,38410,38031,Los Realejos,,,,922341494.0,922343283.0,-16.58017945,28.39111143,2023-10-18T12:08:17.876000,2023-10-18T12:08:17.876000
industria automocion repuestos accesorios,Autorepuestos La Guancha,AV,Avenida,Hipolito Sinforiano,1,38440,38018,La Guancha,,,autorelaguancha@gmail.com,922828280.0,922828280.0,-16.65073886,28.37388905,2016-05-09T12:45:15.374000,2023-10-18T14:41:54.296000
industria automocion repuestos accesorios,Autorepuestos Nucho,CL,Calle,Mazo,2,38108,38023,La Laguna,Pg Poligono 5,www.nucho.com,info@step.es,922311200.0,922311207.0,-16.30130075,28.45679902,2016-05-09T12:45:15.374000,2016-08-01T10:42:49.402000
industria automocion repuestos accesorios,Autorepuestos Rash,CR,Carretera,General TF 217 Norte,241,38389,38051,La Victoria,,,,,,-16.478106,28.42788999,2016-05-09T12:45:15.374000,2016-08-01T10:42:49.402000
industria automocion repuestos accesorios,Autorepuestos Royca Tenerife,CM,Camino,Acebuche,8,38430,38022,Icod de los Vinos,Pg Hoya Garces,,,922811067.0,922811067.0,-16.70325919,28.37414782,2016-05-09T12:45:15.374000,2016-08-01T10:42:49.402000
industria automocion repuestos accesorios,Autorepuestos San Jose,CR,Carretera,General TF 351 San Jose,30,38428,38034,San Juan de la Rambla,San Jose,,autrepsanjose@gmail.com,922350272.0,,-16.649355,28.38127699,2016-05-09T12:45:15.374000,2016-08-01T10:42:49.402000
industria automocion repuestos accesorios,Autorepuestos San Juan,CR,Carretera,General TF 217 Norte,89,38380,38051,La Victoria,,,,922580435.0,,-16.469872,28.43528999,2016-05-09T12:45:15.374000,2016-08-01T10:42:49.402000
industria automocion repuestos accesorios,Autorepuestos San Lorenzo,CR,Carretera,General TF 66 Cruz del Guanche Guaza,19,38626,38006,Arona,Valle San Lorenzo,www.granpyme.com,slrepuestos@gmail.com,922765052.0,922765482.0,-16.66218392,28.08703198,2016-05-09T12:45:15.374000,2016-08-01T10:42:49.402000
industria automocion repuestos accesorios,Autorepuestos Sur,CR,Carretera,General TF 28 Sur,134,38626,38006,Arona,Valle San Lorenzo,,,922765027.0,922765043.0,-16.65894275,28.09139525,2016-05-09T12:45:15.374000,2016-08-01T10:42:49.402000
industria automocion repuestos accesorios,Autorepuestos Valentin,AV,Avenida,Mencey de Abona,66,38600,38017,Granadilla de Abona,,,avalentinglez@gmail.com,922772247.0,,-16.579688,28.11566709,2016-05-09T12:45:15.374000,2016-08-01T10:42:49.402000
industria automocion repuestos accesorios,Autorepuestos Velazquez,CL,Calle,Presidente Adolfo Suarez Gonzalez,4,38320,38023,La Laguna,,,,922655468.0,,-16.29043051,28.46877574,2021-06-08T10:09:02.163000,2021-06-08T10:09:02.163000
industria automocion repuestos accesorios,Autorepuestos Vivo,AV,Avenida,Los Menceyes,292,38320,38023,La Laguna,,,repuestos_vivo@hotmail.com,922643551.0,,-16.289301,28.46876799,2016-05-09T12:45:15,2016-08-01T10:42:49.402000
industria automocion taller,Autos Cano Cano Taller,CL,Calle,Hermano Pedro San Isidro,44,38611,38017,Granadilla de Abona,San Isidro,,,922390288.0,922392121.0,-16.55733,28.07296799,2016-05-09T12:45:15.374000,2018-05-18T14:18:24.961000
industria automocion taller,Autos DyA,CL,Calle,Fuerteventura,44,38632,38006,Arona,El Fraile,,,922784162.0,922784162.0,-16.66660565,28.01188376,2016-05-09T12:45:15.374000,2015-11-26T14:19:28.756000
industria automocion repuestos accesorios,Autos El Empalme,AV,Avenida,Chincanayros,16,38434,38022,Icod de los Vinos,El Empalme,www.repuestoselempalme.com,auto@repuestoselempalme.com,625596204.0,,-16.69835662,28.37672017,2016-07-29T09:21:39.772000,2023-04-25T13:40:43.451000
industria automocion taller,Autos Josacar,CL,Calle,Guadayeque,9,38632,38006,Arona,Guargacho,,,922353825.0,,-16.63894741,28.03562812,2016-05-09T12:45:15.374000,2015-08-04T12:34:29.298000
industria automocion taller,Autos Jumasa,CR,Carretera,General TF 154 Portezuelo Las Toscas,146,38292,38046,Tegueste,El Socorro,,,,,-16.362642,28.51642999,2016-05-09T12:45:15.374000,2023-04-25T13:37:58.766000
industria automocion taller,Autos La Curva,AV,Avenida,Santa Cruz,2,38611,38017,Granadilla de Abona,San Isidro,www.citroenlacurva.com,ventas@citroenlacurva.com,922391477.0,922391450.0,-16.56426,28.08399749,2016-05-09T12:45:15.374000,2023-04-26T08:14:18.964000
industria automocion taller,Autos Logocar,CR,Carretera,General TF 342 Icod El Alto,223,38414,38031,Los Realejos,Icod El Alto,,,922359505.0,,-16.61882943,28.37939217,2016-05-09T12:45:15.374000,2015-12-02T08:41:21.011000
industria automocion taller,Autos Miluz,CL,Calle,Calvario,271,38340,38043,Tacoronte,Lomo Colorado,,,922572010.0,,-16.39131056,28.48623755,2016-05-09T12:45:15.374000,2015-08-04T14:09:16.564000
industria automocion taller,Autos Ramos,CM,Camino,Real TF 237,163,38355,38043,Tacoronte,Barranco Las Lajas Gasolinera Cepsa,,,922567116.0,,-16.39594089,28.46969564,2016-07-12T13:14:34,2017-01-16T13:54:33.422000
industria automocion repuestos accesorios,Autos Reveron,CR,Carretera,General TF 28 Sur,26,38627,38006,Arona,La Camella,www.autosreveron.com,autosreveron@telefonica.net,922720900.0,922721153.0,-16.68027376,28.07924538,2016-05-09T12:45:15.374000,2023-04-26T08:20:07.178000
industria automocion taller,Autos Valiente,CR,Carretera,General TF 217 Norte,116,38380,38051,La Victoria,,www.autosvaliente.net,valiente@autosvaliente.net,922580213.0,922581464.0,-16.473696,28.43328999,2016-05-09T12:45:15.374000,2023-04-25T13:37:17.063000
industria automocion taller,Autos Valiente Taller,CR,Carretera,General TF 217 Norte,116,38380,38051,La Victoria,,www.autosvaliente.net,lubricantes@autosvaliente.net,922580121.0,922580340.0,-16.47372778,28.43325367,2016-05-09T12:45:15.374000,2015-11-24T12:53:25.012000
industria automocion repuestos accesorios,Autos Vielmax,AU,"Autopista, autovía",TF 5 Norte,31,38340,38043,Tacoronte,Pg Los Naranjeros II,www.autosvielmax.com,autosvielmax@autosvielmax.com,922577745.0,922573506.0,-16.38797311,28.48648431,2016-05-09T12:45:15.374000,2023-04-26T08:20:07.178000
industria automocion taller,Autoservicio Armando,CL,Calle,Waque,29,38350,38043,Tacoronte,El Cantillo,,,,,-16.40114582,28.47977031,2016-05-09T12:45:15.374000,2015-08-04T13:42:46.792000
industria automocion taller,Autoservicio Arturo,CR,Carretera,General TF 42 Icod Buenavista,12,38479,38042,Los Silos,San Bernardo,,,922841314.0,,-16.82975112,28.36643085,2016-05-09T12:45:15.374000,2017-03-24T09:15:31.723000
industria automocion taller,Autoservicio Arzola,CL,Calle,Fuerteventura,106,38632,38006,Arona,El Fraile,,,922730227.0,922730227.0,-16.67053316,28.01125671,2016-05-09T12:45:15,2016-09-08T08:02:01.049000
industria automocion taller,Autoservicio Don Llanta,AV,Avenida,Coronel Gorrin,16,38684,38040,Santiago del Teide,Tamaimo Ed La Cerca,,,,,-16.81821898,28.26741237,2016-05-09T12:45:15.374000,2015-08-04T12:56:56.468000
industria automocion taller,Autoservicio Icod El Alto,CR,Carretera,General TF 342 Icod El Alto,201,38414,38031,Los Realejos,Icod El Alto,,,922359731.0,,-16.61809305,28.38027191,2016-05-09T12:45:15.374000,2015-12-02T08:41:21.011000
industria automocion taller,Autoservicio Los Chamos,CL,Calle,Gestur Tenerife,6,38109,38032,El Rosario,PI La Campana San Isidro,,,922681176.0,,-16.31541723,28.41368357,2017-02-15T11:40:07.893000,2017-06-28T12:03:36.848000
industria automocion repuestos accesorios,Autoservicio Migue,PS,Paseo,La Libertad,37,38689,38019,Guía de Isora,Chio,,,678132362.0,,-16.79743844,28.24092406,2016-05-09T12:45:15.374000,2017-06-08T09:55:35.604000
industria automocion taller,Autoservicio Miguel,CL,Calle,Los Panaderos,12,38611,38017,Granadilla de Abona,San Isidro,,,922390295.0,,-16.55710258,28.07968114,2016-05-09T12:45:15.374000,2015-08-04T11:58:50.747000
industria automocion taller,Autoservicio TSA,CL,Calle,El Calvario,14,38613,38052,Vilaflor,,,tsautoservicio@gmail.com,922709263.0,,-16.636845,28.15478899,2016-05-09T12:45:15.374000,2015-08-04T12:05:34.680000
industria automocion taller,Autosur,CL,Calle,Tenbel,51,38639,38035,San Miguel,P I Las Chafiras,www.autosur.es,info@autosur.es,922659990.0,,-16.61947427,28.04768912,2017-02-15T11:40:07.893000,2023-04-26T08:22:09.551000
industria automocion taller,Autotalleres Delta,CL,Calle,El Puente,3,38292,38046,Tegueste,El Portezuelo Alto,www.autotalleresdelta.com,info@autotalleresdelta.com,922639080.0,922638228.0,-16.353907,28.49179599,2016-05-09T12:45:15.374000,2016-01-04T10:32:56.529000
industria automocion repuestos accesorios,Autoteide,CL,Calle,Añepa,0,38639,38035,San Miguel,Z I Las Chafiras II,www.autoteide.com,chafiras@autoteide.com,922736380.0,922736096.0,-16.61137239,28.05707142,2017-02-15T11:40:07.893000,2017-03-14T08:57:23.663000
industria construccion,Auxiliar de la Construccion Borja,CR,Carretera,General TF 28 Sur,3,38107,38038,Santa Cruz de Tenerife,Taco CC Concorde,,,,,-16.300387,28.44444299,2016-05-09T12:45:15.374000,2018-05-29T10:30:57.660000
industria automocion taller,Avamti,CL,Calle,Los Majuelos,24,38108,38023,La Laguna,Los Andenes,,,922629696.0,,-16.3011115,28.4471028,2016-05-09T12:45:15.374000,2016-06-20T14:52:38.054000
industria construccion,Averias y Mantenimientos Aveman,CL,Calle,La Campana,18,38109,38032,El Rosario,PI La Campana San Isidro,www.aveman.es,info@aveman.es,922626223.0,922626334.0,-16.31485521,28.41475255,2017-02-15T11:40:07.893000,2017-06-28T12:03:36.848000
industria construccion,Averias y Mantenimientos Aveman,CL,Calle,La Campana,18,38109,38032,El Rosario,PI La Campana San Isidro,www.aveman.es,info@aveman.es,922626223.0,922626334.0,-16.31500344,28.41492214,2017-02-15T11:40:07.893000,2017-06-28T12:03:36.848000
industria construccion,Averias y Mantenimientos Aveman,CL,Calle,La Campana,18,38109,38032,El Rosario,PI La Campana San Isidro,www.aveman.es,info@aveman.es,922626223.0,922626334.0,-16.31485521,28.41475255,2017-02-15T11:40:07.893000,2017-06-28T12:03:36.848000
industria construccion,Averias y Mantenimientos Aveman,CL,Calle,La Campana,18,38109,38032,El Rosario,PI La Campana San Isidro,www.aveman.es,info@aveman.es,922626223.0,922626334.0,-16.3150035,28.41492205,2017-02-15T11:40:07.893000,2017-06-28T12:03:36.848000
industria automocion taller,Az Racing,CL,Calle,Daniel Feo Feo,15,38639,38035,San Miguel,P I Las Chafiras,,,675742153.0,,-16.62032681,28.04930989,2017-02-15T11:40:07.893000,2017-02-16T13:51:26.067000
industria automocion taller,Azudautos,CL,Calle,Jesus Hernandez Guzman,6,38110,38038,Santa Cruz de Tenerife,Z I Mercatenerife,,jaazudautos@yahoo.es,922232900.0,922232154.0,-16.28033283,28.44320914,2017-02-15T11:40:07.893000,2017-02-16T13:51:26.067000
industria automocion taller,Azudautos,CL,Calle,Carmen Goya Hernandez,12,38110,38038,Santa Cruz de Tenerife,Z I Mercatenerife,,jaazudautos@yahoo.es,922232900.0,922232154.0,-16.28122102,28.44198751,2017-02-15T11:40:07,2017-07-06T08:55:38.073000
industria construccion,Azulejos Canarios,CL,Calle,Fernando Beautell,25,38009,38038,Santa Cruz de Tenerife,Z I Chamberi,www.azulejosinsulares.com,info@azulejosinsulares.com,922226943.0,922203475.0,-16.27651525,28.44845852,2017-02-15T11:40:07.893000,2017-02-16T13:51:26.067000
industria construccion,Azulejos Insulares,CL,Calle,Antonio Lecuona Hardisson,20,38009,38038,Santa Cruz de Tenerife,Z I Chamberi,www.azulejosinsulares.es,vinytas@hotmail.com,922226943.0,922203475.0,-16.27587259,28.44879286,2017-02-15T11:40:07.893000,2017-02-16T13:51:26.067000
industria construccion,Azulejos Insulares,CL,Calle,Siete Islas Canarias,35,38639,38035,San Miguel,Z I Llano Del Camello,,azulejosinsulares@idecnet.com,922736750.0,922736751.0,-16.61812156,28.05207484,2017-02-15T11:40:07.893000,2017-02-16T13:51:26.067000
industria hospitalaria,B Braun Medical,PG,Polígono,Industrial Valle de Guimar,0,38509,38004,Arafo,PG GUIMAR MZ 5 PARC 8,www.bbraun.es,diego.garcia@bbraum.com,922506051.0,922506159.0,-16.37131978,28.33301314,2016-05-09T12:45:15.374000,2018-05-24T17:22:06.194000
gasolinera,Bar Cafeteria Gasolinera Cepsa,CL,Calle,Dublin,1,38660,38001,Adeje,Fañabe Gasolinera Cepsa,,,696526665.0,,-16.7281536,28.09012502,2019-03-13T12:26:33.792000,2019-03-13T12:26:33.792000
industria automocion,Barloworld Finanzauto,CR,Carretera,General TF 256 El Tablero,0,38109,38032,El Rosario,Pg El Chorrillo Prunisa,www.finanzauto.es,,922626000.0,922611498.0,-16.32392317,28.41745326,2016-05-09T12:45:15.374000,2016-11-09T09:37:12.779000
industria automocion,Barloworld Finanzauto,CR,Carretera,General TF 256 El Tablero,0,38109,38032,El Rosario,Pg El Chorrillo Prunisa,www.finanzauto.es,,922626000.0,922611498.0,-16.32382635,28.41708396,2016-05-09T12:45:15.374000,2016-11-09T09:37:12.779000
industria construccion,BAT Laminas Solares,CR,Carretera,General TF 192 El Rosario,174,38010,38038,Santa Cruz de Tenerife,,,,,,-16.289093,28.4477229,2016-05-09T12:45:15.374000,2018-01-12T12:08:02.780000
industria automocion taller,Beauty Car,AU,"Autopista, autovía",TF 5 Norte,0,38312,38026,La Orotava,CC La Villa Lc Sotano,,,922324570.0,,-16.5478908,28.39631319,2016-05-09T12:45:15.374000,2017-10-23T10:39:57.743000
industria construccion,Becetor Metal,CL,Calle,Delgado Trinidad,11,38500,38020,Güimar,,,,922511447.0,,-16.415827,28.31999599,2016-05-09T12:45:15.374000,2015-08-04T10:57:05.185000
industria otro tipo,Befara,CL,Calle,Girasol,8,38107,38038,Santa Cruz de Tenerife,Pg El Pilar,,,922625267.0,922625267.0,-16.3202976,28.42550037,2016-05-09T12:45:15.374000,2016-06-20T09:47:08.937000
industria automocion taller,Bellclar Chafiras,AV,Avenida,Lucio Diaz Flores Feo,83,38639,38035,San Miguel,Z I Llano Del Camello,www.angelbellosl.com,info@bellclar.com,922736108.0,922703190.0,-16.619604,28.05498487,2017-02-15T11:40:07.893000,2017-02-16T13:51:26.067000
industria construccion,Bello Simancas,AV,Avenida,El Paso,21,38108,38023,La Laguna,Los Majuelos,,bellosimancas@yahoo.es,922978097.0,,-16.30109728,28.45888889,2016-05-09T12:45:15.374000,2016-10-13T08:55:17.610000
industria carpinteria aluminio,Benito Santana Aluminio,CL,Calle,Francisco Baez,3,38293,38023,La Laguna,Las Mercedes,,,922268529.0,,-16.2944103,28.51970472,2016-05-09T12:45:15.374000,2015-08-04T13:54:56.208000
industria otro tipo,Betecnoelesma Canarias,CR,Carretera,General TF 152 Norte,29,38350,38043,Tacoronte,CC Tacoronte La Estacion Lc 8,,,922562524.0,,-16.41632006,28.47626435,2018-05-22T10:04:10.312000,2018-05-22T10:04:10.312000
industria construccion,Betemps Ceramica,CL,Calle,Esteban de Ponte,3,38450,38015,Garachico,,,cuarterobetemsjulian@yahoo.es,697484726.0,,-16.76561,28.37277999,2016-05-09T12:45:15,2018-03-16T14:16:13.111000
industria construccion,Betico,CL,Calle,La Campana,2,38109,38032,El Rosario,PI La Campana San Isidro,www.betico.com,jalvarez@betico.com,922204067.0,922201499.0,-16.31966755,28.41894521,2017-02-15T11:40:07.893000,2017-06-28T12:03:36.848000
industria construccion,Biocanarias Solar,CL,Calle,El Toscal,49,38417,38031,Los Realejos,El Toscal,www.biocanariassolar.com,biocanariassolar@gmail.com,922364302.0,,-16.57353333,28.40086666,2016-05-09T12:45:15.374000,2023-10-18T14:38:49.207000
industria productos quimicos abonos,Biomca Quimica,CL,Calle,Darsena Pesquera,0,38120,38038,Santa Cruz de Tenerife,Z I Darsena Norte Puerto,,,0.0,,-16.20209624,28.49721644,2017-02-15T11:40:07.893000,2017-03-10T09:05:18.142000
industria reprografia y artes gráficas,Blanco & Negro Rotulos,CR,Carretera,General TF 366 El Amparo,112,38438,38022,Icod de los Vinos,El Amparo,,,922121081.0,,-16.71181142,28.35945817,2016-05-09T12:45:15.374000,2015-08-04T13:10:36.692000
industria construccion,Bloquera de Canarias,PG,Polígono,Industrial Valle de Guimar,0,38509,38020,Güimar,PG GUIMAR MZ 13 PARC 10,,,922506785.0,922506731.0,-16.374371,28.32551452,2016-05-09T12:45:15.374000,2018-05-24T17:22:06.194000
imprenta reprografia,Bobet Soportes Publicitarios,CL,Calle,Antonio Lecuona Hardisson,0,38009,38038,Santa Cruz de Tenerife,Z I Chamberi,www.bobetcanarias.com,info@bobetcanarias.com,922215730.0,922215228.0,-16.27661467,28.44845639,2017-02-15T11:40:07.893000,2017-03-10T09:05:18.142000
industria vitivinicola,Bodega Aceviño,CM,Camino,La Patita,63,38438,38022,Icod de los Vinos,,,bodegasacevino@yahoo.es,922810237.0,922810237.0,-16.70821227,28.35651516,2018-01-29T14:43:54.309000,2018-01-30T09:00:56.502000
industria vitivinicola,Bodega Agryenca Enologia,CR,Carretera,General TF 152 Norte,162,38350,38043,Tacoronte,,www.agryenca.com,enologia@agryenca.com,922571312.0,922572381.0,-16.40728596,28.47802847,2016-05-09T12:45:15,2018-05-24T17:22:06.194000
industria vitivinicola,Bodega Altos de Trevejos,CL,Calle,Jose Hernandez Alfonso,27,38620,38035,San Miguel,,www.altosdetrevejos.com,trevejos@altosdetrevejos.com,607112040.0,,-16.61961278,28.09428229,2016-05-09T12:45:15,2018-01-25T07:45:13.589000
industria vitivinicola,Bodega Arca de Vitis,CL,Calle,Chinguaro,22,38500,38020,Güimar,San Francisco Javier,www.vinocontiempo.com,bodega@vinocontiempo.com,630277042.0,922512552.0,-16.397169,28.33039899,2016-05-09T12:45:15,2018-01-25T14:58:45.400000
industria vitivinicola,Bodega Arese,CR,Carretera,Archifira,43,38570,38012,Fasnia,,www.vinaarese.com,pedrohdeztejera@hotmail.com,647932571.0,,-16.4554556,28.25009465,,
industria vitivinicola,Bodega Balcon de La Laguna,CM,Camino,Las Mercedes TF 113,270,38293,38023,La Laguna,Las Mercedes,www.bodegasbalcondelalaguna.es,ventas@balcondelalaguna.com,637761205.0,922251420.0,-16.29552963,28.51743767,2016-05-09T12:45:15,2018-05-24T17:22:06.194000
industria vitivinicola,Bodega Balcon del Valle,CM,Camino,La Arbeja,117,38312,38026,La Orotava,La Perdoma,,bodegasroter@telefonica.net,922326461.0,922324454.0,-16.55335032,28.38321832,2016-05-09T12:45:15,2018-02-20T11:42:18.531000
industria vitivinicola,Bodega Balja,PS,Paseo,La Centinela,53,38430,38022,Icod de los Vinos,La Centinela,,vinosengracia@hotmail.com,922810857.0,922860895.0,-16.70746132,28.3762011,,2018-01-30T09:00:56.502000
industria vitivinicola,Bodega Cathaysa,CL,Calle,Lomo Lirios,35,38130,38038,Santa Cruz de Tenerife,Taganana,,jmexpositoromero@yahoo.es,616393033.0,922590252.0,-16.21711582,28.55827017,,2018-06-21T10:10:05.482000
industria vitivinicola,Bodega CB Lopez de Ayala,CM,Camino,El Majuelo,2,38450,38015,Garachico,,,,922133079.0,922830066.0,-16.75867556,28.37329464,2018-01-29T14:47:12.319000,2018-01-30T09:00:56.502000
industria vitivinicola,Bodega Comarcal Valle de Guimar,CR,Carretera,General TF 523 Arafo La Cumbre,0,38550,38004,Arafo,Los Loros Km 4,www.bodegavalledeguimar.com,info@bodegavalledeguimar.com,628018039.0,922513055.0,-16.42224403,28.35549338,2016-05-09T12:45:15,2018-05-24T17:22:06.194000
industria vitivinicola,Bodega Cooperativa Agricola San Miguel CASMI,CR,Carretera,General TF 28 Sur,3,38620,38035,San Miguel,,www.casanmiguel.com,bodega@casanmiguel.com,922700300.0,922700301.0,-16.61166848,28.10321443,,
industria vitivinicola,Bodega Cooperativa Cumbres de Abona,CM,Camino,El Viso,7,38589,38005,Arico,Teguedite,www.cumbresdeabona.es,bodega@cumbresdeabona.es,922768604.0,922768234.0,-16.48974,28.17140799,2016-05-09T12:45:15.374000,2018-01-24T13:53:27.749000
industria vitivinicola,Bodega Cueva de Lino,CL,Calle,Cruz de Candelaria,2,38203,38023,La Laguna,Esq 6 de Diciembre,,,630055322.0,922255478.0,-16.32238387,28.48847619,2016-05-09T12:45:15,2018-05-24T17:22:06.194000
industria vitivinicola,Bodega Cueva del Infierno,CL,Calle,Subida Antonio Viera,10,38292,38046,Tegueste,El Infierno,,,670842462.0,,-16.35184053,28.50788609,2018-01-30T12:18:32.063000,2018-05-24T17:22:06.194000
industria vitivinicola,Bodega Chavez San Diego,CM,Camino,Botello,2,38370,38025,La Matanza,Finca San Diego,,,670813614.0,922579029.0,-16.45664737,28.45289681,2017-02-21T14:15:51,2018-05-24T17:22:06.194000
industria vitivinicola,Bodega Daniel Viera,CL,Calle,Los Pobres,92,38280,38046,Tegueste,,,,922544880.0,922546655.0,-16.34460524,28.52387098,2016-05-09T12:45:15,2018-05-24T17:22:06.194000
industria vitivinicola,Bodega de Sidra Posma,CL,Calle,Real Orotava,160,38359,38041,El Sauzal,Ravelo,,,922584636.0,,-16.42229006,28.46104529,2016-08-09T13:14:52.205000,2018-05-24T17:22:06.194000
industria vitivinicola,Bodega Domingo Gil,CM,Camino,Real TF 237,104,38355,38043,Tacoronte,Agua Garcia,,almacenes_aguagarcia@hotmail.com,922584948.0,922584948.0,-16.40474827,28.46617463,2016-05-09T12:45:15,2018-05-24T17:22:06.194000
industria vitivinicola,Bodega Domingo Hernandez Santana,CM,Camino,Las Mercedes,21,38208,38023,La Laguna,,,agroturismoanaga@yahoo.es,687877336.0,922251144.0,-16.30868357,28.50017575,2018-01-23T08:56:46,2018-05-24T17:22:06.194000
industria vitivinicola,Bodega Dominguez,CL,Calle,Calvario,79,38350,38043,Tacoronte,,www.bodegasdominguez.es,info@bodegasdominguez.es,922572435.0,922572435.0,-16.41150244,28.48456368,2016-05-09T12:45:15.374000,2018-01-24T14:04:40.729000
industria vitivinicola,Bodega Don Gustavo,CR,Carretera,La Virgen,39,38360,38041,El Sauzal,,www.dongustavo.eu,info@dongustavo.eu,629453577.0,922575372.0,-16.44104595,28.47533744,2018-01-23T13:23:49.777000,2018-01-25T14:40:04.351000
industria vitivinicola,Bodega Eduardo Hernandez,CL,Calle,Real Orotava,298,38359,38041,El Sauzal,Ravelo,,,922584221.0,,-16.4349041,28.45650779,2016-05-11T08:50:04,2018-05-24T17:22:06.194000
industria vitivinicola,Bodega El Borujo,CR,Carretera,General TF 523 Arafo La Cumbre,0,38550,38004,Arafo,Km 4,www.elborujo.com,el_borujo@hotmail.com,636824919.0,,-16.42253818,28.35518961,2016-05-09T12:45:15,2016-11-09T09:37:12
industria vitivinicola,Bodega El Calvario,CL,Calle,El Calvario,39,38315,38026,La Orotava,La Perdoma,,,922308725.0,922308144.0,-16.54797886,28.38011223,2018-01-29T11:00:51.229000,2018-07-06T11:36:11.074000
industria vitivinicola,Bodega El Cercado,CL,Calle,Miranda,26,38356,38043,Tacoronte,La Caridad,,bodegasekcercado@hotmail.com,669887736.0,922562002.0,-16.40209167,28.50130703,2016-05-09T12:45:15,2016-04-27T11:47:02
industria vitivinicola,Bodega El Lomo,CM,Camino,El Lomo,18,38292,38046,Tegueste,,www.bodegaellomo.com,oficina@bodegaellomo.com,922545254.0,,-16.352266,28.51283999,2016-05-09T12:45:15,2018-05-24T17:22:06.194000
industria vitivinicola,Bodega El Mocanero,CR,Carretera,General TF 152 Norte,347,38340,38043,Tacoronte,Los Naranjeros,www.bodegaelmocanero.com,elmocanero@bodegaelmocanero.com,922560762.0,,-16.3925774,28.48495225,2017-03-09T10:21:17,2017-03-09T10:21:17
industria vitivinicola,Bodega El Penitente,CM,Camino,La Habanera,286,38310,38026,La Orotava,,,bodegas@elpenitentesl.ces,922309024.0,922309024.0,-16.535877,28.37265203,2018-01-24T14:29:50.519000,2018-01-30T09:00:56.502000
industria vitivinicola,Bodega El Ratiño,CM,Camino,El Ratiño,5,38310,38026,La Orotava,La Perdoma Ratiño,,,922308720.0,,-16.5393863,28.37808314,2016-05-09T12:45:15,2018-01-30T09:00:56.502000
industria vitivinicola,Bodega El Timplillo,CL,Calle,Real Orotava,300,38359,38041,El Sauzal,Ravelo,,,922560752.0,,-16.43501178,28.45634727,2016-05-11T08:50:04,2018-05-24T17:22:06.194000
industria vitivinicola,Bodega El Viñedo,CL,Calle,Alfredo Hernandez Canino,152,38297,38023,La Laguna,Rodeo Alto,,,,,-16.35916755,28.48394108,2016-05-09T12:45:15.374000,2018-05-24T17:22:06.194000
industria vitivinicola,Bodega Elisa Lopez de Ayala,LG,"Lugar, zona",Finca Malpais,11,38458,38015,Garachico,El Guincho Malpais,,,922830016.0,,-16.73884777,28.37611523,,2018-01-30T09:00:56.502000
industria vitivinicola,Bodega Eras del Marques,CR,Carretera,General TF 324 La Orotava Los Realejos,171,38315,38026,La Orotava,La Perdoma La Punta,,,922375298.0,922309715.0,-16.55808582,28.37643566,2016-05-09T12:45:15,2015-08-04T13:23:53
industria vitivinicola,Bodega Escuela Capacitacion Agraria,CR,Carretera,General TF 165 Guayonge,68,38356,38043,Tacoronte,Guayonge,,,922573360.0,922573361.0,-16.41957343,28.49596788,2016-05-09T12:45:15,2015-08-04T13:43:48
